location,latitude,longitude,count,title
"Aliso Viejo, CA",33.5761376,-117.7258122,17.0,Cook
"Daytona Beach, FL",29.2108147,-81.0228331,15.0,Auto Body Techncian
"Aliso Viejo, CA",33.5761376,-117.7258122,17.0,Dishwasher
"Texas, United States",31.2638905,-98.5456116,90.0,Delivery Director (LLM Data Services)
"New York, United States",40.7127281,-74.0060152,167.0,Quantitative Trader [5048]
"Raleigh, NC",35.7803977,-78.6390989,125.0,Remote Vacation Planner
"Hartford, CT",41.764582,-72.6908547,47.0,Remote Vacation Planner
"Minden, NV",38.9542487,-119.765617,6.0,Continuous Manufacturing Expert - Pharmaceuticals (Small Molecule) [5302]
"Coeur d'Alene, ID",47.6742994,-116.7811531,6.0,Sales Manager
"Waukesha, WI",43.0622536,-88.3123889,9.0,Body Technician
"Denver, CO",39.7392364,-104.984862,247.0,Associate Veterinarian
"Nashville, TN",36.1622767,-86.7742984,175.0,Business Analyst Sr - Hybrid Nasville
"Orlando, FL",28.5421109,-81.3790304,171.0,Controls Engineer
"Oakland, CA",37.8044557,-122.271356,55.0,CDL Class B Driver
"Minden, NV",38.9542487,-119.765617,6.0,Senior Pharmaceutical Sales [5301]
"Portland, OR",45.5202471,-122.674194,122.0,"Additional Design, Strategy, Writing, Project Management, and More Roles"
"Florence, KY",38.9989499,-84.6266111,12.0,Lead Electrical Engineer [5326]
"Florence, KY",38.9989499,-84.6266111,12.0,Lead Systems Engineer [5321]
"Broomfield, CO",39.9403995,-105.05208,23.0,"Senior Manager, Indirect Procurement"
"Richmond, VA",37.5385087,-77.43428,116.0,Sales Manager
"Portland, OR",45.5202471,-122.674194,122.0,"Additional Design, Strategy, Writing, Project Management, and other Roles"
"Edison, NJ",40.518157,-74.4113926,20.0,Sales Executive - New Jersey
"Rapid City, SD",44.0806041,-103.228023,8.0,Sales Manager
Los Angeles Metropolitan Area,-11.9862556,-77.0096138,101.0,Speech-Language Pathology Assistant
"Santa Rosa, CA",38.4404925,-122.7141049,26.0,Associate Veterinarian
"Portland, OR",45.5202471,-122.674194,122.0,Writer
"Texas, United States",31.2638905,-98.5456116,90.0,"Director, Contributor Experience"
"Marietta, GA",33.9528472,-84.5496148,14.0,Estimator In Training
"San Jose, CA",37.3361663,-121.890591,158.0,Field Sales Manager [5276]
"Pittsburgh, PA",40.4416941,-79.9900861,115.0,Associate Veterinarian
Greater Sacramento,38.7041491,-121.3150029,6.0,Quality Control Technician [5303]
"Chico, CA",39.7284945,-121.8374777,7.0,Sales Manager
"Omaha, NE",41.2587459,-95.9383758,73.0,Lead Registered Behavior Technician Lead RBT [5162]
"Omaha, NE",41.2587459,-95.9383758,73.0,BCBA [5159]
"New Jersey, United States",40.0757384,-74.4041622,54.0,Structural Project Manager [5185]
"Philadelphia, PA",39.9527237,-75.1635262,209.0,Sales Manager
"New York, NY",40.7127281,-74.0060152,818.0,Sales Executive
"New York, NY",40.7127281,-74.0060152,818.0,"Sr Strategic Operations Manager, Global New Verticals - Consumer Operations"
"San Francisco, CA",37.7792588,-122.4193286,289.0,"Sr Strategic Operations Manager, Global New Verticals - Consumer Operations"
"Charlottesville, VA",38.029306,-78.4766781,27.0,Sales Manager
"New York, NY",40.7127281,-74.0060152,818.0,Sales Executive
"Bellevue, WA",47.6144219,-122.192337,63.0,Strategy & Operations Manager
"Milwaukee, WI",43.0386475,-87.9090751,90.0,Body Technician
"Syracuse, NY",43.0481221,-76.1474244,28.0,Associate Veterinarian
"Menlo Park, CA",37.4519671,-122.177992,15.0,Echo Sonographer
"Denton, TX",33.1838787,-97.1413417,17.0,Admissions Processing Supervisor
"Denton, TX",33.1838787,-97.1413417,17.0,Clinical Assistant/ Clinical Associate Professor: Strength and Conditioning & Biomechanics
"Minden, NV",38.9542487,-119.765617,6.0,Senior Regulatory Affairs Specialist - ANDA
"Minden, NV",38.9542487,-119.765617,6.0,Pharmaceutical Manufacturing Plant Manager
"Florence, KY",38.9989499,-84.6266111,12.0,Lead Mechanical Engineer[5325]
"Huntsville, AL",34.729847,-86.5859011,34.0,Radio Frequency Engineer [5333]
"New York, United States",40.7127281,-74.0060152,167.0,Senior Survey Manager [5186]
"York, PA",39.962493,-76.7276989,22.0,Sales Manager
"Salinas, CA",36.6744117,-121.655037,7.0,Sales Manager
"Cranberry Township, PA",40.7099343,-80.1060506,9.0,Assistant Manager
"San Jose, CA",37.3361663,-121.890591,158.0,Senior Test Engineer  [5274]
"Fort Worth, TX",32.753177,-97.3327459,112.0,Research Assistant III
"Fort Wayne, IN",41.0799898,-85.1386015,30.0,Registered Dietitian (50% remote)
"Dallas, TX",32.7762719,-96.7968559,383.0,Remote Vacation Planner
"Florence, KY",38.9989499,-84.6266111,12.0,Lead Controls Engineer [5327]
"Jackson, TN",35.6144446,-88.8177418,13.0,Sales Manager
"Hicksville, NY",40.7681926,-73.5238207,6.0,Construction Inspector [5243]
"Westlake Village, CA",34.1460234,-118.8061794,9.0,Medical Director
"Orange, CA",33.750631,-117.8722311,21.0,Imaging Supervisor
"Los Angeles, CA",34.0536909,-118.242766,366.0,Sales Manager
"Poughkeepsie, NY",41.7065539,-73.9283672,6.0,Sales Manager
"Milwaukee, WI",43.0386475,-87.9090751,90.0,Maintenance Technician - CWC
"Oakland, CA",37.8044557,-122.271356,55.0,CDL Class A Driver
"Winchester, VA",39.1852184,-78.1652404,12.0,Sales Manager
"Omaha, NE",41.2587459,-95.9383758,73.0,Mental Health Therapist [5161]
"Omaha, NE",41.2587459,-95.9383758,73.0,Independent Mental Health Practitioner  LIMHP [5160]
"Florence, KY",38.9989499,-84.6266111,12.0,Electrical Engineering Manager [5320]
"State College, PA",40.7944504,-77.8616386,11.0,Sales Manager
"Broomfield, CO",39.9403995,-105.05208,23.0,"Senior Category Activation Manager, Ingredients"
"Idaho Falls, ID",43.4887907,-112.03628,12.0,Sales Manager
"Broomfield, CO",39.9403995,-105.05208,23.0,"Manager, Producer Relations Manager (PRM) West"
"Roanoke, VA",37.270973,-79.9414313,17.0,Sales Manager
"Iowa City, IA",41.6612561,-91.5299106,8.0,Sales Manager
"Bowling Green, KY",36.9903199,-86.4436018,11.0,Sales Manager
"Kalamazoo, MI",42.291707,-85.5872286,9.0,Sales Manager
"Burlington, MA",42.5048167,-71.1956111,14.0,Software Quality Assurance Engineer [5291]
San Francisco Bay Area,37.7884969,-122.3558473,162.0,Railroad Worker In Charge
"Baltimore, MD",39.2908816,-76.610759,109.0,Sales Manager
"Fort Worth, TX",32.753177,-97.3327459,112.0,Assistant Director of Medical Student Success - TCOM Advisory Colleges
"New York, NY",40.7127281,-74.0060152,818.0,Remote Vacation Planner
"Minden, NV",38.9542487,-119.765617,6.0,Senior Regulatory Affairs Specialist - Inhaled Medications
"Kankakee, IL",41.1253903,-87.848682,7.0,Sales Manager
"Florence, KY",38.9989499,-84.6266111,12.0,Lead Project Engineer [5324]
"Pittsburgh, PA",40.4416941,-79.9900861,115.0,Sales Manager
"Williamsport, PA",41.2493292,-77.0027671,8.0,Sales Manager
"Boston, MA",42.3554334,-71.060511,324.0,Sales Manager
"New York, NY",40.7127281,-74.0060152,818.0,General Counsel
"Gainesville, FL",29.6519684,-82.3249846,52.0,Sales Manager
"Redding, CA",40.5863563,-122.391675,9.0,Sales Manager
"Concord, NH",43.207178,-71.537476,10.0,Sales Manager
"Chicago, IL",41.8755616,-87.6244212,534.0,Non-Fiction Writer
"Fayetteville, AR",36.0625843,-94.1574328,6.0,Sales Manager
"Augusta, ME",44.3169922,-69.7734278,7.0,Sales Manager
"Vancouver, WA",45.6306954,-122.6744557,41.0,Maintenance Supervisor
"Vancouver, WA",45.6306954,-122.6744557,41.0,Community Director - NE
"San Francisco, CA",37.7792588,-122.4193286,289.0,Fullstack Engineer
"Fountain Valley, CA",33.7038145,-117.9627349,11.0,Production Manager
"Knoxville, TN",35.9603948,-83.9210261,30.0,Sales Manager
"Conroe, TX",30.3118769,-95.4560512,7.0,Full-Time ER Veterinarian J183578
"Healdsburg, CA",38.583011,-122.8636039292566,6.0,Kitchen Assistant
"Torrance, CA",33.8371392,-118.3413606,45.0,Housekeeping EVS I - FT Days
"Memphis, TN",35.1460249,-90.0517638,57.0,Transaction Coordinator
"Orlando, FL",28.5421109,-81.3790304,171.0,Shift Manager
"Phoenix, AZ",33.4484367,-112.074141,279.0,Executive Assistant
"Menlo Park, CA",37.4519671,-122.177992,15.0,"Sr. Manager, Supply Chain Planning"
"Healdsburg, CA",38.583011,-122.8636039292566,6.0,Houskeeper
"Oklahoma City, OK",35.4729886,-97.5170536,78.0,"Chef Instructor, Savory (Sur La Table)"
"Napa, CA",38.2971367,-122.2855293,7.0,ASSISTANT COORDINATOR OF NURSING SERVICES
"Charlottesville, VA",38.029306,-78.4766781,27.0,Administrative Assistant III (4899)
"Pensacola, FL",30.421309,-87.2169149,18.0,ISD Analyst II-ID & Access Mgmt
"Cupertino, CA",37.3228934,-122.0322895,28.0,Assistant General Manager
"Fort Mill, SC",35.0073697,-80.9450759,15.0,(Remote) HR Business Partner
"Ithaca, NY",42.437417499999995,-76.54837235139263,5.0,Sales Manager
"Broomfield, CO",39.9403995,-105.05208,23.0,IT Data and Finance Manager 
"Fairview, OR",45.5377902,-122.4472125,6.0,Boy's 8th Grade Basketball Coach (Walt Morey MS)
"Gilbert, AZ",33.3527632,-111.789037,11.0,"Veterinarian, J180338"
"Portland, OR",45.5202471,-122.674194,122.0,Digital Strategist
"St George, UT",37.104153,-113.584131,8.0,Surgical Technologist
"Malvern, PA",40.036202,-75.5138959,20.0,"Revenue Specialist I, ROPS"
"Tempe, AZ",33.4255117,-111.940016,54.0,"Senior Director, Loss Mitigation"
"San Francisco, CA",37.7792588,-122.4193286,289.0,Head of Content
"San Francisco, CA",37.7792588,-122.4193286,289.0,Senior Camera Image Quality Engineer
"San Francisco, CA",37.7792588,-122.4193286,289.0,Ranch Hand
"Raleigh, NC",35.7803977,-78.6390989,125.0,Senior Technical Program Manager (Capital)
"San Jose, CA",37.3361663,-121.890591,158.0,Staff Scientist
"Boise, ID",43.6166163,-116.200886,51.0,Travel IR Tech - Interventional Radiology Ultrasound Tech - General - 680354
"Tempe, AZ",33.4255117,-111.940016,54.0,Online Inventory Acquisition Specialist
"Menlo Park, CA",37.4519671,-122.177992,15.0,"Senior Manager, SEC Reporting & Technical Accounting"
"Dothan, AL",31.2237285,-85.3934375,6.0,Retail Counter Sales
"Herndon, VA",38.9695316,-77.3859479,36.0,"Sales Manager-Herndon, VA"
Charlotte Metro,35.22329095,-80.84744438723916,20.0,Regional Account Manager
"Maywood, IL",41.8789942,-87.8436412,6.0,Loyola . Pharmacy Tech . Full Time
"Houston, TX",29.7589382,-95.3676974,444.0,Global Account Manager
"Detroit, MI",42.3315509,-83.0466403,69.0,Global Account Manager
"Herndon, VA",38.9695316,-77.3859479,36.0,Global Account Manager
"Encinitas, CA",33.0369867,-117.2919818,6.0,Sleep Expert - Sales
"Louisville, KY",38.2542376,-85.759407,87.0,Travel - PCU - Nurse Job - $2050/wk - $2279/wk
"Dallas, TX",32.7762719,-96.7968559,383.0,Client Services Specialist
"Sacramento, CA",38.5810606,-121.493895,109.0,Key Account Manager
"Hicksville, NY",40.7681926,-73.5238207,6.0,Resident Engineer [5118]
"Fairfield, CT",41.1412078,-73.2637258,5.0,"Per Diem (PRN) Behavioral Health LVN/LPN job in Fairfield, CT - Make $320/shift"
"Fairfield, CT",41.1412078,-73.2637258,5.0,"Per Diem (PRN) Behavioral Health LVN/LPN job in Fairfield, CT - Make $320/shift"
"St George, UT",37.104153,-113.584131,8.0,Medical Assistant Orthopedics and Sports Medicine
"Tallahassee, FL",30.4380832,-84.2809332,39.0,Registered Nurse
"Louisville, KY",38.2542376,-85.759407,87.0,Business Intelligence Analyst
"Torrance, CA",33.8371392,-118.3413606,45.0,Sterile Processing Tech - FT Evenings
"San Jose, CA",37.3361663,-121.890591,158.0,"Analytics Lead, Full Stack (Card & Consumer Banking)"
"Raleigh, NC",35.7803977,-78.6390989,125.0,IT Help Desk Technician
"South San Francisco, CA",37.6535403,-122.4168664,21.0,"Senior Principal Scientist, ADME/PK"
"Seattle, WA",47.6038321,-122.330062,257.0,Regional Account Manager
"Overland Park, KS",38.9742502,-94.6851702,45.0,"Sales Manager, Overland Park, KS"
"Washington, DC",38.8950368,-77.0365427,262.0,"Service Delivery Coordinator, Washington, DC"
"Boca Raton, FL",26.3586885,-80.0830984,34.0,"Sales Manager, Boca Raton, FL"
"Phoenix, AZ",33.4484367,-112.074141,279.0,Health & Safety Assistant
San Francisco Bay Area,37.7884969,-122.3558473,162.0,National Account Manager
"Overland Park, KS",38.9742502,-94.6851702,45.0,Help Desk Technician-Overland Park KS
San Francisco Bay Area,37.7884969,-122.3558473,162.0,Global Account Manager
"Washington, DC",38.8950368,-77.0365427,262.0,Carrier Access Project Manager – Cogent Communicat
"Herndon, VA",38.9695316,-77.3859479,36.0,"Customer Support Engineer –Herndon, VA"
"Orlando, FL",28.5421109,-81.3790304,171.0,"Field Technician, Orlando, FL"
"Mesa, AZ",33.4151005,-111.831455,40.0,Travel - PCU - Nurse Job - $2551/wk - $2740/wk
"Chicago, IL",41.8755616,-87.6244212,534.0,Cloud Solutions Engineer
"Jersey City, NJ",40.7215682,-74.047455,70.0,Front Desk Supervisor
"Pittsburgh, PA",40.4416941,-79.9900861,115.0,Epidemiology Research Associate - Healthcare Associated Infections (HAI)
"Las Vegas, NV",36.1672559,-115.148516,168.0,OB/GYN Physician
"Cedar Rapids, IA",41.9758872,-91.6704053,26.0,"Director, Global Process Owner"
"Orlando, FL",28.5421109,-81.3790304,171.0,Team Member
"El Segundo, CA",33.917028,-118.4156337,31.0,Corporate Communications Director (remote)
"Washington, DC",38.8950368,-77.0365427,262.0,"Service Delivery Coordinator, Washington, DC"
"Houston, TX",29.7589382,-95.3676974,444.0,"Sales Manager - Houston, TX"
Los Angeles Metropolitan Area,-11.9862556,-77.0096138,101.0,Regional Account Manager
"Miami, FL",25.7741728,-80.19362,231.0,Regional Account Manager
"Houston, TX",29.7589382,-95.3676974,444.0,Global Account Manager
"Santa Clara, CA",37.2333253,-121.6846349,77.0,Global Account Manager
"Washington, DC",38.8950368,-77.0365427,262.0,Cogent Project Engineering Manager
"Washington, DC",38.8950368,-77.0365427,262.0,"Contracts Specialist, Washington DC"
"Tempe, AZ",33.4255117,-111.940016,54.0,Employment Specialist EMPACT
"Houston, TX",29.7589382,-95.3676974,444.0,Personal Banker I
"Washington, DC",38.8950368,-77.0365427,262.0,Administrative Legal Assistant (Entry-Level)
"Seattle, WA",47.6038321,-122.330062,257.0,Bankruptcy Litigation Associate - Mid/Senior Level - Seattle
"Las Vegas, NV",36.1672559,-115.148516,168.0,OB/GYN Physician
"Los Angeles, CA",34.0536909,-118.242766,366.0,Junior Web Development Associate
"Lebanon, PA",40.375713,-76.4626118,10.0,Travel - Med Surg - Nurse Job - $2024/wk - $2211/wk
"Indianapolis, IN",39.7683331,-86.1583502,112.0,Travel - Med Surg - Nurse Job - $1647/wk - $1874/wk
"High Point, NC",35.9556924,-80.0053176,6.0,"Manager, Financial Planning and Analysis - Hybrid, High Point, NC"
"Charlotte, NC",35.2272086,-80.8430827,247.0,"Manager, Financial Planning and Analysis - Hybrid, Charlotte, NC"
"Santa Barbara, CA",34.4221319,-119.702667,22.0,"Travel ER RN job in Santa Barbara, CA - Make $2308 to $2930/week"
"Fresno, CA",36.7394421,-119.78483,37.0,Counter Sales Associate
"Memphis, TN",35.1460249,-90.0517638,57.0,MAINTENANCE POINTGUARD I (Sr Maintenance Tech)
"Clearwater, FL",27.9658533,-82.8001026,15.0,Mechanical Assembler
"Glendale, CA",34.1469416,-118.2478471,19.0,Travel - Telemetry - Nurse Job - $2440/wk - $2641/wk
"Florence, SC",34.174608750000004,-79.78017904453355,9.0,Travel - LTAC - Nurse Job - $1831/wk - $2027/wk
"San Marcos, TX",29.8826436,-97.9405828,6.0,Sales Associate
"Bloomington, IL",40.4797828,-88.9939147,6.0,Salesperson
"Roanoke, VA",37.270973,-79.9414313,17.0,Travel - PCU - Nurse Job - $2226/wk - $2416/wk
"Austin, TX",30.2711286,-97.7436995,347.0,"Audit Intern - Summer 2024 - Austin, TX"
"San Carlos, CA",37.504936,-122.261823,15.0,Powertrain and Electronics Manufacturing Training Specialist
"Federal Way, WA",47.313494,-122.33931,9.0,"Revenue Coordinator, ROPS"
"Everett, WA",47.9793437,-122.2127011,22.0,Travel - Telemetry - Nurse Job - $2955/wk - $3144/wk
"Detroit, MI",42.3315509,-83.0466403,69.0,Cyber Security SOC L3 Security Analyst (M/F)
"New York, NY",40.7127281,-74.0060152,818.0,Retail Sales Associate (Seasonal)
"Sterling, VA",39.0017455,-77.4033349,11.0,Regional Account Manager
Charlotte Metro,35.22329095,-80.84744438723916,20.0,Global Account Manager
San Francisco Bay Area,37.7884969,-122.3558473,162.0,Global Account Manager
"Charleston, SC",32.7884363,-79.9399309,44.0,"Fiber Technician, Charleston, SC"
"Durham, NC",35.996653,-78.9018053,78.0,Senior SRE Software Engineer - Block Storage
"Everett, WA",47.9793437,-122.2127011,22.0,Obstetrician/Gynecologist
"Houston, TX",29.7589382,-95.3676974,444.0,"Pharmacy Director, TMC"
"Memphis, TN",35.1460249,-90.0517638,57.0,Travel - CVPICU - Nurse Job - $2493/wk - $2682/wk
"Atlanta, GA",33.7489924,-84.3902644,382.0,"Director, Customer Experience, NA"
"Pooler, GA",32.1158983,-81.2495131,7.0,Sales Associate
"Torrance, CA",33.8371392,-118.3413606,45.0,Housekeeping EVS I - FT Eve
"Redlands, CA",34.0550328,-117.1827445,6.0,"Travel ER RN job in Redlands, CA - Make $3473 to $3653/week"
"Tyler, TX",30.7563939,-94.3984613,6.0,Patient Representative Senior - Gastroenterology Clinic
"Shreveport, LA",32.5135356,-93.7477839,14.0,Retail Sales Associate I
"Fond du Lac, WI",43.7533414,-88.4493796,7.0,"Travel Physical Therapist Outpatient job in Fond du Lac, WI - Make $2462 - $2651/week"
"San Marcos, TX",29.8826436,-97.9405828,6.0,Mammography Technologist - Imaging Mammography
"Jackson, TN",35.6144446,-88.8177418,13.0,Checker Operator 2nd shift
"Beaverton, OR",45.4871723,-122.80378,27.0,Industrial Mechanic
"Midland, TX",31.83688,-102.0103767,28.0,Travel - Med Surg - Nurse Job - $2174/wk - $2400/wk
"Grand Junction, CO",39.0672568,-108.56448,14.0,Travel Registered Nurse ER Emergency Room - 680362
"Williamsburg, VA",37.2708788,-76.7074042,12.0,"Store Associate, PT - Williamsburg VA"
"Broomfield, CO",39.9403995,-105.05208,23.0,Staff Accountant
"Orlando, FL",28.5421109,-81.3790304,171.0,Nike Factory Store - Specialist (Supervisor) - Orlando - Vineland
"Charlottesville, VA",38.029306,-78.4766781,27.0,Travel - MS/Tele - Nurse Job - $2168/wk - $2358/wk
"Seattle, WA",47.6038321,-122.330062,257.0,Visual Merchandising Manager-Wholesale
"Colorado Springs, CO",38.8339578,-104.825348,37.0,Store Driver
"Columbus, OH",39.9622601,-83.0007065,149.0,Program Controls Analyst – Data Center Construction
"Seattle, WA",47.6038321,-122.330062,257.0,"project manager, business operations"
"Ann Arbor, MI",42.2813722,-83.7484616,15.0,CT Tech
"Wilkes-Barre, PA",41.2464824,-75.8817316,5.0,Travel - CT Tech Job - $2005/wk - $2194/wk
"Jackson, TN",35.6144446,-88.8177418,13.0,Travel - LTAC - Nurse Job - $1911/wk - $2099/wk
"Minneapolis, MN",44.9772995,-93.2654692,141.0,Service Connection Associate
"Canton, OH",40.7985464,-81.3749508,7.0,Travel - LTAC - Nurse Job - $1703/wk - $1925/wk
"San Jose, CA",37.3361663,-121.890591,158.0,Restaurant / Entertainment Manager
"Tempe, AZ",33.4255117,-111.940016,54.0,Senior Merchant Success Manager
"Washington, DC",38.8950368,-77.0365427,262.0,"Senior Manager of NA Data Center Operations, Washi"
"Dallas, TX",32.7762719,-96.7968559,383.0,Regional Learning Manager
"Orlando, FL",28.5421109,-81.3790304,171.0,Regional Account Manager
"Pasadena, CA",34.1476507,-118.144155,44.0,Global Account Manager
"New Orleans, LA",29.9759983,-90.0782127,38.0,Global Account Manager
"Herndon, VA",38.9695316,-77.3859479,36.0,Global Account Manager
"Philadelphia, PA",39.9527237,-75.1635262,209.0,Global Account Manager
"Washington, DC",38.8950368,-77.0365427,262.0,"Counsel, Washington, DC"
"Mesa, AZ",33.4151005,-111.831455,40.0,Travel - PCU - Nurse Job - $2551/wk - $2740/wk
"Mesa, AZ",33.4151005,-111.831455,40.0,Travel - PCU - Nurse Job - $2551/wk - $2740/wk
"Lafayette, IN",40.4191229,-86.8919011,16.0,Travel - MS/Tele - Nurse Job - $2487/wk - $2675/wk
"Denver, CO",39.7392364,-104.984862,247.0,"Senior Technical Program Manager, Network Infrastructure"
"Colorado Springs, CO",38.8339578,-104.825348,37.0,Transportation Supervisor
"Los Angeles, CA",34.0536909,-118.242766,366.0,Legal Document Specialist
"Costa Mesa, CA",33.6633386,-117.903317,27.0,Outside Sales Director (Community Ambassador)
"Louisville, KY",38.2542376,-85.759407,87.0,Travel - PCU - Nurse Job - $2050/wk - $2279/wk
"Alexandria, LA",31.3119463,-92.4453558,17.0,Physician - Pulmonologist
"Atlanta, GA",33.7489924,-84.3902644,382.0,Travel - LTAC - Nurse Job - $1970/wk - $2194/wk
"San Antonio, TX",29.4246002,-98.4951405,124.0,Medical Assistant WellMed Specialists for Health Cardiology
Omaha Metropolitan Area,41.26945255,-95.94497616177789,14.0,Hematology and Oncology APP - Inpatient BMT
"Newport Beach, CA",33.6170092,-117.9294401,20.0,Maintenance Manager (1457 Apartment Homes)
"Tucson, AZ",32.2228765,-110.974847,64.0,Administrative Assistant/Order Entry
"Binghamton, NY",42.098698,-75.9125187,5.0,salesperson
"Phoenix, AZ",33.4484367,-112.074141,279.0,Project Accountant (Construction)
"Warren, MI",41.8119602,-79.2654452,12.0,Accounting Administrator
"Torrance, CA",33.8371392,-118.3413606,45.0,Steam Engineer - FT Nights
San Francisco Bay Area,37.7884969,-122.3558473,162.0,Global Account Manager
"Washington, DC",38.8950368,-77.0365427,262.0,Assistant Controller North America - Washington DC
"Overland Park, KS",38.9742502,-94.6851702,45.0,Global Account Manager
"Washington, DC",38.8950368,-77.0365427,262.0,"Director, Information Technology - Washington DC"
"Honolulu, HI",21.304547,-157.855676,37.0,Senior Electrical Estimator
"Gainesville, FL",29.6519684,-82.3249846,52.0,Travel - LTAC - Nurse Job - $1791/wk - $1994/wk
"Newark, NJ",40.735657,-74.1723667,43.0,Platform Solutions Manager
"Irving, TX",32.8295183,-96.9442177,97.0,Technical Writer
"Alexandria, LA",31.3119463,-92.4453558,17.0,Physician - Neurosurgery
"Nashville, TN",36.1622767,-86.7742984,175.0,"Product Manager, Business Development"
"Macon, GA",32.8406946,-83.6324022,10.0,Travel - LTAC - Nurse Job - $1886/wk - $2074/wk
"Los Angeles County, CA",34.3155072,-118.209681,23.0,Leave of Absence Coordinator (JR 3915)
"Everett, WA",47.9793437,-122.2127011,22.0,"Travel ER RN job in Everett, WA - Make $2059 to $2249/week"
Omaha Metropolitan Area,41.26945255,-95.94497616177789,14.0,Sr Refrigeration Technician
"Chantilly, VA",38.8788355,-77.40221718011088,33.0,SIGINT Systems Engineer - Senior Principal
"Miami, FL",25.7741728,-80.19362,231.0,Travel - Sonographer Job - $2235/wk - $2488/wk
"Sanford, NC",35.4798757,-79.1802994,5.0,Travel - CT Tech Job - $2034/wk - $2226/wk
"San Francisco, CA",37.7792588,-122.4193286,289.0,Project Manager - OEM
"Kent, WA",47.3826903,-122.2270272,16.0,district manager - retail
"Richardson, TX",32.9481789,-96.7297206,33.0,Behavioral Health Care Coord
"Bridgewater, NJ",40.5598127,-74.5517146,7.0,nCino Enterprise Architect
"Chicago, IL",41.8755616,-87.6244212,534.0,Regional Account Manager
"Addison, TX",32.960477850000004,-96.8300673063398,16.0,"Sales Manager, Addison, TX"
Charlotte Metro,35.22329095,-80.84744438723916,20.0,Regional Account Manager
"Chicago, IL",41.8755616,-87.6244212,534.0,Regional Account Manager
"Santa Clara, CA",37.2333253,-121.6846349,77.0,Global Account Manager
"Herndon, VA",38.9695316,-77.3859479,36.0,Global Account Manager
"Walnut Creek, CA",37.9020731,-122.0618702,16.0,Global Account Manager
"Washington, DC",38.8950368,-77.0365427,262.0,"Customer Support Engineer –Washington, DC"
"Orlando, FL",28.5421109,-81.3790304,171.0,"Fiber Technician-Orlando, FL"
"Torrance, CA",33.8371392,-118.3413606,45.0,Freight Forwarder - Air Import & Air Export
"New York, NY",40.7127281,-74.0060152,818.0,"Senior Technical Program Manager, Network Infrastructure"
"San Francisco, CA",37.7792588,-122.4193286,289.0,"Senior Technical Program Manager, Network Infrastructure"
"Orlando, FL",28.5421109,-81.3790304,171.0,Medical Sales Representative
"Honolulu, HI",21.304547,-157.855676,37.0,Estimator
"Indianapolis, IN",39.7683331,-86.1583502,112.0,"Travel Certified OR Tech / Surgical Tech (CST) job in Indianapolis, IN - Make $1276 - $1503/week"
"Everett, WA",47.9793437,-122.2127011,22.0,Travel - Telemetry - Nurse Job - $2187/wk - $2344/wk
"Tyler, TX",30.7563939,-94.3984613,6.0,ACNP/PA - CVICU
"Des Moines, IA",41.5868654,-93.6249494,51.0,Financial Advisor Associate
"Santa Clara, CA",37.2333253,-121.6846349,77.0,"Senior Technical Program Manager, IT Infrastructure"
"Cambridge, MA",42.3656347,-71.1040018,65.0,Test & Automation Lead - Patient Services
"Phoenix, AZ",33.4484367,-112.074141,279.0,Director Product Support
"Everett, WA",47.9793437,-122.2127011,22.0,Travel - Med Surg - Nurse Job - $2167/wk - $2357/wk
"Eugene, OR",44.0505054,-123.0950506,14.0,"Store Associate, SEAS - Eugene"
"Berkeley, CA",37.8708393,-122.272863,12.0,Finance Associate
"Buffalo, NY",42.8867166,-78.8783922,37.0,Release Train Engineer
"Louisville, KY",38.2542376,-85.759407,87.0,Sales Account Executive
"Coeur d'Alene, ID",47.6742994,-116.7811531,6.0,Commercial Parts Pro
"Clearwater, FL",27.9658533,-82.8001026,15.0,Accountant II
"Brea, CA",33.9170444,-117.888855,18.0,Regulatory Affairs Coordinator
"Wichita, KS",37.6922361,-97.3375448,41.0,Travel - LTAC - Nurse Job - $2137/wk - $2325/wk
"Kansas City, MO",39.100105,-94.5781416,84.0,Travel - Step Down - Nurse Job - $2151/wk - $2383/wk
"Sioux Falls, SD",43.5476008,-96.7293629,17.0,Sr Manager Operations
"Des Moines, IA",41.5868654,-93.6249494,51.0,NP- Psychiatry
"Champaign, IL",40.1164841,-88.2430932,6.0,Senior Product Manager - Accelerated Apache Spark
"Washington, DC",38.8950368,-77.0365427,262.0,"Service Delivery Coordinator, Washington, DC"
"Houston, TX",29.7589382,-95.3676974,444.0,"Regional Learning Manager-Houston, TX"
"Orlando, FL",28.5421109,-81.3790304,171.0,Global Account Manager
"Pasadena, CA",34.1476507,-118.144155,44.0,Global Account Manager
"Vienna, VA",38.9013729,-77.2651762,18.0,Global Account Manager
San Francisco Bay Area,37.7884969,-122.3558473,162.0,Global Account Manager
"Washington, DC",38.8950368,-77.0365427,262.0,"Customer Support Manager, Washington, DC"
"Oklahoma City, OK",35.4729886,-97.5170536,78.0,"Fiber Technician, Oklahoma City, OK"
"Mesa, AZ",33.4151005,-111.831455,40.0,Travel - PCU - Nurse Job - $2551/wk - $2740/wk
"New Jersey, United States",40.0757384,-74.4041622,54.0,"Senior Product Manager, Customer Platforms"
"Auburn Hills, MI",42.6875323,-83.2341028,36.0,Engineer – Compliance Reporting (Fuel Economy)
"Milwaukee, WI",43.0386475,-87.9090751,90.0,"Direct Sales Representative, CRM - Milwaukee, WI"
"San Diego, CA",32.7174202,-117.162772,235.0,Part-time Mandarin Teacher
"Greenville, SC",34.851354,-82.3984882,57.0,"Travel Certified OR Tech / Surgical Tech (CST) job in Greenville, SC - Make $1973 - $2162/week"
"Pocatello, ID",42.8620287,-112.450627,11.0,"Travel Registered Nurse - Med/Surg job available in Pocatello, ID - Make $2,425wk"
"Los Angeles, CA",34.0536909,-118.242766,366.0,Process Improvement & Robotic Process Automation (RPA) Analyst
"Alexandria, LA",31.3119463,-92.4453558,17.0,Physician - Gastroenterologist
"Arlington, TX",32.7355816,-97.1071186,25.0,Warehouse Operations Supervisor - 1st Shift
"Alexandria, LA",31.3119463,-92.4453558,17.0,Computed Tomography Technologist-Imaging CAT Scan
"California, United States",36.7014631,-118.755997,162.0,"Principal Software Engineer, MLOps Infrastructure"
"Santa Clara, CA",37.2333253,-121.6846349,77.0,"Senior Financial Analyst, Operations and Manufacturing"
"Woodstock, GA",34.1014112,-84.5192192,7.0,"Nurse Practitioner - Urgent Visits - Woodstock, GA"
"Bridgewater, NJ",40.5598127,-74.5517146,7.0,"Manager, Consumer Care"
"Troy, MI",42.7284117,-73.6917878,42.0,Buyer - Ferrous Castings
"Davenport, IA",41.5235808,-90.5770967,13.0,Travel Sterile Processing Tech - 680347
"Anniston, AL",33.6624824,-85.8283224,6.0,"Fork Lift Operator, Warehouse"
"Santa Monica, CA",34.0194704,-118.491227,31.0,"Regulatory Specialist job in Santa Monica, CA - Make $2516 - $2742/week"
"Newark, NJ",40.735657,-74.1723667,43.0,"Campaign Manager, Programmatic"
"Portland, ME",43.6573605,-70.2586618,14.0,Roadside Assistance Dispatcher
"Atlanta, GA",33.7489924,-84.3902644,382.0,Lead Accountant
"Richardson, TX",32.9481789,-96.7297206,33.0,Behavioral Health Care Coordinator
"Santa Barbara, CA",34.4221319,-119.702667,22.0,"Travel Speech Language Pathologist Outpatient job in Santa Barbara, CA - Make $2060 - $2286/week"
"Needham, MA",42.2802645,-71.2360624,10.0,Director of Corporate And Foundation Relations
"Austin, TX",30.2711286,-97.7436995,347.0,MICROSOFT BUSINESS GROUP (MBG) SALES EXECUTIVE
"Souderton, PA",40.3117707,-75.3251759,7.0,Sr. Distribution Associate - Weekend Shift
"Flint, MI",43.0161693,-83.6900211,8.0,Retail Sales Associate
"Las Vegas, NV",36.1672559,-115.148516,168.0,Groundskeeper
"Everett, WA",47.9793437,-122.2127011,22.0,Travel - MS/Tele - Nurse Job - $2955/wk - $3144/wk
"Fort Worth, TX",32.753177,-97.3327459,112.0,"Travel Occupational Therapist Inpatient Rehab job in Fort Worth, TX - Make $2064 - $2287/week"
"Irving, TX",32.8295183,-96.9442177,97.0,Corporate Secretary Senior
"Phoenix, AZ",33.4484367,-112.074141,279.0,"Travel ER RN job in Phoenix, AZ - Make $2202 to $2406/week"
"Santa Clara, CA",37.2333253,-121.6846349,77.0,Deep Learning Algorithms Manager
Omaha Metropolitan Area,41.26945255,-95.94497616177789,14.0,Sr. Painter
"Jackson, TN",35.6144446,-88.8177418,13.0,Material Supply- 2nd shift
"Davenport, IA",41.5235808,-90.5770967,13.0,Travel Sterile Processing Tech - 680348
"Beaverton, OR",45.4871723,-122.80378,27.0,"North America, Senior Director Visual Merchandising & Styling"
"Chicago, IL",41.8755616,-87.6244212,534.0,Patient Care Tech-General Medicine 13W Part-time Evenings
"San Antonio, TX",29.4246002,-98.4951405,124.0,Director of Operations
"Everett, WA",47.9793437,-122.2127011,22.0,Travel - Telemetry - Nurse Job - $2167/wk - $2357/wk
"Centennial, CO",39.579155,-104.8769227,12.0,"Travel Certified OR Tech / Surgical Tech (CST) job in Centennial, CO - Make $1578 - $1806/week"
"New Orleans, LA",29.9759983,-90.0782127,38.0,Travel - Pathologist Assistant Job - $3159/wk - $3336/wk
"Glendale, CA",34.1469416,-118.2478471,19.0,Life Sales Agent
"Lititz, PA",40.1571324,-76.307162,7.0,Athletic Trainer (Full Time)
"Memphis, TN",35.1460249,-90.0517638,57.0,Travel - LTAC - Nurse Job - $1917/wk - $2128/wk
"Greenbrae, CA",37.9485356,-122.5247031,7.0,Travel - Med Surg - Nurse Job - $2132/wk - $2357/wk
"Sacramento, CA",38.5810606,-121.493895,109.0,Telework Option - Hybrid - IT Security Specialist
"Tulsa, OK",36.1563122,-95.9927516,53.0,Senior Preconstruction Estimator - Data Center Construction
"Salt Lake City, UT",40.7596198,-111.886797,117.0,Data Center Technician
"Indianapolis, IN",39.7683331,-86.1583502,112.0,"Travel Certified OR Tech / Surgical Tech (CST) job in Indianapolis, IN - Make $1451 - $1676/week"
"Edison, NJ",40.518157,-74.4113926,20.0,Store Driver
"Miami, FL",25.7741728,-80.19362,231.0,Front Desk Supervisor  
"Tempe, AZ",33.4255117,-111.940016,54.0,Chief Engineer
"Austin, TX",30.2711286,-97.7436995,347.0,"Communications Manager, Texas McCombs"
"Elkhart, IN",41.6012796,-85.8590603,11.0,Store Driver
"Houston, TX",29.7589382,-95.3676974,444.0,Project Controls Specialist
"Austin, TX",30.2711286,-97.7436995,347.0,"Senior Communications Manager, Texas McCombs"
"Houston, TX",29.7589382,-95.3676974,444.0,Diabetes Sales Specialist
"Cincinnati, OH",39.1014537,-84.5124602,94.0,Travel - Med Surg - Nurse Job - $1648/wk - $1879/wk
"Irving, TX",32.8295183,-96.9442177,97.0,Senior Quality Assurance Professional
"New York, NY",40.7127281,-74.0060152,818.0,Surgical Technician
"Wichita, KS",37.6922361,-97.3375448,41.0,Truck Driver 3
"Beaverton, OR",45.4871723,-122.80378,27.0,Senior Administrative Assistant - Finance Transformation
"Newark, NJ",40.735657,-74.1723667,43.0,Enterprise Go-To-Market Manager
"Greenville, SC",34.851354,-82.3984882,57.0,"Senior Project Manager, Innovation"
"Milwaukee, WI",43.0386475,-87.9090751,90.0,Travel - Med Surg - Nurse Job - $2280/wk - $2469/wk
"Eugene, OR",44.0505054,-123.0950506,14.0,Tax Senior
"Tulsa, OK",36.1563122,-95.9927516,53.0,Travel - MS/Tele - Nurse Job - $1977/wk - $2167/wk
"Jackson, TN",35.6144446,-88.8177418,13.0,"Permanent Staff Medical Surgical RN job in Jackson, TN - Make $25 to $40/hour"
"Sacramento, CA",38.5810606,-121.493895,109.0,Telework Option - Housing Policy Analyst
"Los Angeles, CA",34.0536909,-118.242766,366.0,Implant Direct Regional Sales Representative (Los Angeles)
"Worcester, MA",42.2625621,-71.8018877,34.0,Recertification Specialist
"Portsmouth, NH",43.0702223,-70.7548621,11.0,Data Foundation Engineering Leader – GRS Tech
"Waltham, MA",42.3756401,-71.2358004,38.0,"Simulia Industry Process Consultant - Electro Magnetics –Santa Clara, CA or Waltham, MA"
"Brea, CA",33.9170444,-117.888855,18.0,SW Dev Analyst Associate
"Newark, NJ",40.735657,-74.1723667,43.0,Platform Solutions Manager
"Concord, NC",35.4094178,-80.5800049,7.0,Maintenance Technician
"San Francisco, CA",37.7792588,-122.4193286,289.0,Senior Organizational Effectiveness Consultant - Tech & Product
"Oakland, CA",37.8044557,-122.271356,55.0,Certified Nurse Midwife
"Scottsdale, AZ",33.4942189,-111.926018,78.0,Bilingual Customer Service Specialist (Spanish)
"Waltham, MA",42.3756401,-71.2358004,38.0,ENOVIA Industry Process Consultant (Partner) - Detroit area preferred
"Temple, TX",31.098207,-97.3427847,14.0,salesperson
"Boston, MA",42.3554334,-71.060511,324.0,"GCP Compliance Senior Manager, Quality Event Management (Hybrid)"
"Kansas City, MO",39.100105,-94.5781416,84.0,Patient Services Coordinator - Front Office
"Scottsdale, AZ",33.4942189,-111.926018,78.0,Physical Therapist -$5000 Sign on Bonus
"Jacksonville, FL",30.3321838,-81.655651,110.0,Collections Associate
"Las Vegas, NV",36.1672559,-115.148516,168.0,Assistant Store Manager $16.25-$17.00 per hr.
"San Luis Obispo, CA",35.3540209,-120.375716,8.0,Store Associate San Luis Obispo #401
"Austin, TX",30.2711286,-97.7436995,347.0,"Reality Labs Accounting Manager, Sourcing"
"New York, United States",40.7127281,-74.0060152,167.0,Director of Key Accounts (Beauty)
"Corona, CA",33.8752945,-117.566444,8.0,Senior Retail Stocking Associate
"Oakland, CA",37.8044557,-122.271356,55.0,Senior Organizational Effectiveness Consultant - Tech & Product
"Louisville, KY",38.2542376,-85.759407,87.0,Business Analyst
"Las Vegas, NV",36.1672559,-115.148516,168.0,Assistant Store Manager $16.25-$17.00 per hr.
"Indianapolis, IN",39.7683331,-86.1583502,112.0,Sr. Scientist - TS/MS
"Denver, CO",39.7392364,-104.984862,247.0,Affordable Regional Manager
"Pueblo, CO",38.2544472,-104.609141,7.0,Affordable Regional Manager - Denver
"Wilmington, DE",39.7459468,-75.546589,54.0,Social Worker (LSW)
"Las Vegas, NV",36.1672559,-115.148516,168.0,Paint Store Associate (Bilingual Spanish) - Part Time $14.50phr
"Fort Collins, CO",40.5871782,-105.0770113,17.0,"Temporary Speech Therapist-3 days/week in Clinic & 1 day/week telehealth January 1-March 31, 2024"
"Tucson, AZ",32.2228765,-110.974847,64.0,Restaurant General Manager
"Greenwood, IN",39.6136987,-86.1095429,8.0,Loan Specialist
"San Diego, CA",32.7174202,-117.162772,235.0,Case Manager - Employment Specialist - Mental Health 370
"Las Vegas, NV",36.1672559,-115.148516,168.0,Store Manager (Lives On Site)
"Aliso Viejo, CA",33.5761376,-117.7258122,17.0,Retail Parts Pro
"San Ramon, CA",37.7648021,-121.9544387,16.0,AP Claims Analyst
"Layton, UT",41.0751048,-111.9741925,8.0,Retail Sales Associate
"Las Vegas, NV",36.1672559,-115.148516,168.0,2024 Commercial Banking Development Program-Credit Analyst- Las Vegas
"Scottsdale, AZ",33.4942189,-111.926018,78.0,Restaurant General Manager North Scottsdale
"Souderton, PA",40.3117707,-75.3251759,7.0,Sr. Distribution Associate 3rd Shift
"Miami, FL",25.7741728,-80.19362,231.0,Assistant Front Office Manager  
"Texas, United States",31.2638905,-98.5456116,90.0,Construction Manager
"Boston, MA",42.3554334,-71.060511,324.0,Customer Facing Experience Lead
"Greenwood, IN",39.6136987,-86.1095429,8.0,Branch Manager
"Colorado Springs, CO",38.8339578,-104.825348,37.0,Affordable Regional Manager
"Las Vegas, NV",36.1672559,-115.148516,168.0,Retail Stocking Supervisor
"Long Beach, CA",33.7690164,-118.191604,52.0,Personal Trainer
"Dover, DE",39.158168,-75.5243682,13.0,Senior Coastal Operations Officer
"Phoenix, AZ",33.4484367,-112.074141,279.0,Diabetes Sales Specialist
"Evansville, IN",37.970495,-87.5715641,17.0,Motor and Generator Field Technician / Engineer - Midwest & Southwest
"Riverside, CA",33.7219991,-116.0372472,24.0,salesperson
"Rochester, MN",44.0234387,-92.4630182,35.0,"(USA) Staff Pharmacist ($20,000 Sign on Bonus)"
"Burlingame, CA",37.5780965,-122.3473099,10.0,Research Design Prototyper - Reality Labs Research
"Fairbanks, AK",64.837845,-147.716675,6.0,HR Business Partner- Total Rewards
"Durham, NC",35.996653,-78.9018053,78.0,Warehouse Supervisor- 2nd Shift
"Cambridge, MA",42.3656347,-71.1040018,65.0,GMA Medical Unit Lead: PDT RAID
"Boston, MA",42.3554334,-71.060511,324.0,"Customer Experience Lead, Lung"
"Maryland, United States",39.5162401,-76.9382069,22.0,Psychiatric Nurse Practitioner
"St Louis, MO",38.6280278,-90.1910154,133.0,Data Warehouse Engineer
"Long Beach, CA",33.7690164,-118.191604,52.0,LVN Team Nurse - Community Mental Health 185
"San Diego, CA",32.7174202,-117.162772,235.0,Peer Recovery Coach II - Care Court ACT 624
"Chaska, MN",44.7894072,-93.6021791,10.0,Associate Technician Production Operations
"Philadelphia, PA",39.9527237,-75.1635262,209.0,WW Head of Channel Programs
"Scottsdale, AZ",33.4942189,-111.926018,78.0,Physical Therapist - $5000.00 Sign-On Bonus
"San Francisco, CA",37.7792588,-122.4193286,289.0,2nd Cook  
"Phoenix, AZ",33.4484367,-112.074141,279.0,Restaurant General Manager Central Phoenix
"Overland Park, KS",38.9742502,-94.6851702,45.0,Commodity Accounting Specialist
"Fargo, ND",46.877229,-96.789821,17.0,Business Development Manager
"Groveport, OH",39.8522449,-82.8868636,6.0,Produce Associate
"Mason City, IA",43.1524574,-93.2017941,8.0,"(USA) Staff Pharmacist- $25,000 Sign On Bonus"
"Hopkinsville, KY",36.8657651,-87.4889532,6.0,(USA) Staff Pharmacist (Hopkinsville) - Sign On Available!
"San Francisco, CA",37.7792588,-122.4193286,289.0,Expeditor | San Francisco Centre
"Miami, FL",25.7741728,-80.19362,231.0,Front Office Manager  
"Golden, CO",39.7546349,-105.22058,22.0,Project Controller I
"Sioux City, IA",42.4966815,-96.4058782,10.0,Travel IR Tech - Interventional Radiology - 680346
"Salt Lake City, UT",40.7596198,-111.886797,117.0,"Health Care Assistant (CNA), 4th Floor Rehab, Part Time"
"Jersey City, NJ",40.7215682,-74.047455,70.0,Front Desk Supervisor  
"Springfield, IL",39.7990175,-89.6439575,17.0,(USA) Staff Pharmacist - Sign On Bonus Potential and Relocation available
"Florence, SC",34.174608750000004,-79.78017904453355,9.0,(USA) Staff Pharmacist
"Fairfax, VA",38.8156356,-77.2836849,32.0,Project Coordinator (Remote)
"Alexandria, LA",31.3119463,-92.4453558,17.0,"Staff Pharmacist - $40,000 Sign on bonus + relocation"
"Bowling Green, KY",36.9903199,-86.4436018,11.0,"(USA) Staff Pharmacist (Bowling Green) - $10,000 Sign-On Bonus"
"Billings, MT",45.7874957,-108.49607,12.0,"(USA) Staff Pharmacist- $50,000 Sign On Bonus and Relocation Available"
"Urbana, IL",40.1117174,-88.207301,16.0,(USA) Pharmacy Manager - Sign-On Bonus Potential and Relocation Available
"Salt Lake City, UT",40.7596198,-111.886797,117.0,"Health Care Assistant (CNA), 4th Floor Rehab, Full Time"
"Salt Lake City, UT",40.7596198,-111.886797,117.0,"Health Care Assistant (CNA), 4th Floor Rehab (Full Time & Part Time positions available!! We accommodate school schedules!! Flexible Schedules!!"
"Louisville, KY",38.2542376,-85.759407,87.0,"Travel Registered Nurse - ICU/Critical Care job available in Louisville, KY - Make $2,023wk"
"Fort Worth, TX",32.753177,-97.3327459,112.0,Controls Engineer
"Golden, CO",39.7546349,-105.22058,22.0,Communications Team Lead – Wind
"Boulder, CO",40.0149856,-105.270545,27.0,Communications Content Coordinator and Writer
"Issaquah, WA",47.5348778,-122.043297,6.0,Senior IT Auditor
"Rapid City, SD",44.0806041,-103.228023,8.0,"(USA) Staff Pharmacist - $50,000 Sign on Bonus"
"Grand Junction, CO",39.0672568,-108.56448,14.0,Travel Registered Nurse OR Operating Room - 680364
"Rapid City, SD",44.0806041,-103.228023,8.0,"(USA) Staff Pharmacist- $50,000 Sign On Bonus"
"Chicago, IL",41.8755616,-87.6244212,534.0,Associate Employee Technology Support Analyst
"New York, NY",40.7127281,-74.0060152,818.0,International Tax Partner
"San Jose, CA",37.3361663,-121.890591,158.0,Machine Learning Engineer
"Centennial, CO",39.579155,-104.8769227,12.0,"Travel Allied - Surg Tech job available in Centennial, CO - Make $1,732wk"
"Anaheim, CA",33.8347516,-117.911732,28.0,"Travel Registered Nurse - Medsurg/Tele job available in Anaheim, CA - Make $2,636wk"
"Florence, SC",34.174608750000004,-79.78017904453355,9.0,"Travel Registered Nurse - PCU job available in Florence, SC - Make $2,000wk"
"Milwaukee, WI",43.0386475,-87.9090751,90.0,"Travel Allied - Surg Tech job available in Milwaukee, WI - Make $2,503wk"
"Plymouth, MA",41.9426657,-70.7618592,8.0,"Travel Registered Nurse - Medsurg/Tele job available in Plymouth, MA - Make $2,542wk"
"Oklahoma City, OK",35.4729886,-97.5170536,78.0,"Travel Registered Nurse - Dialysis job available in Oklahoma City, OK - Make $1,822wk"
"Bridgeport, CT",41.1792695,-73.1887863,10.0,"Travel Registered Nurse - ER/Trauma job available in Bridgeport, CT - Make $2,376wk"
"Atlanta, GA",33.7489924,-84.3902644,382.0,"Travel Registered Nurse - ICU/Critical Care job available in Atlanta, GA - Make $2,204wk"
"Milton, MA",42.2501425,-71.065573,5.0,"Travel Registered Nurse - Telemetry job available in Milton, MA - Make $1,624wk"
"Chicago, IL",41.8755616,-87.6244212,534.0,"Travel Registered Nurse - Medsurg/Tele job available in Chicago, IL - Make $2,240wk"
"Wausau, WI",44.9597858,-89.6272791,8.0,"Travel Registered Nurse - Med/Surg job available in Wausau, WI - Make $2,292wk"
"Oklahoma City, OK",35.4729886,-97.5170536,78.0,"Registered Nurse - Pediatrics  job available in Oklahoma City, OK - Make $2,072wk"
"Oklahoma City, OK",35.4729886,-97.5170536,78.0,"Travel Registered Nurse - OR job available in Oklahoma City, OK - Make $2,135wk"
"Riverside, CA",33.7219991,-116.0372472,24.0,"Travel Registered Nurse - Labor/Delivery job available in Riverside, CA - Make $2,424wk"
"Davenport, IA",41.5235808,-90.5770967,13.0,"Travel CNA - LTC/SNF job available in Davenport, IA - Make $878wk"
"St Louis, MO",38.6280278,-90.1910154,133.0,"Travel Registered Nurse - ICU/Critical Care job available in St. Louis, MO - Make $2,169wk"
"Clackamas, OR",45.1608821,-122.2305038,5.0,"Travel Allied - Surg Tech job available in Clackamas, OR - Make $2,659wk"
"Midland, TX",31.83688,-102.0103767,28.0,"Travel Registered Nurse - OR job available in Midland, TX - Make $2,666wk"
"Las Cruces, NM",32.3140354,-106.779807,7.0,"Travel Registered Nurse - Endoscopy job available in Las Cruces, NM - Make $2,395wk"
"Manhattan, NY",40.788655250000005,-73.9603027827792,30.0,"Travel Registered Nurse - ER/Trauma job available in Manhattan, NY - Make $3,019wk"
"Anchorage, AK",61.2163129,-149.894852,34.0,"Travel Registered Nurse - Dialysis job available in Anchorage, AK - Make $2,123wk"
"Meridian, ID",43.6086295,-116.392326,9.0,"Travel Registered Nurse - Rehab job available in Meridian, ID - Make $1,915wk"
"Louisville, KY",38.2542376,-85.759407,87.0,"Travel Allied - Rad Tech job available in Louisville, KY - Make $1,901wk"
"Winchester, VA",39.1852184,-78.1652404,12.0,"Travel Registered Nurse - PACU/Pre-Post Op job available in Winchester, VA - Make $2,103wk"
"St Louis, MO",38.6280278,-90.1910154,133.0,"Travel Registered Nurse - Medsurg/Tele job available in St. Louis, MO - Make $2,837wk"
"Irvine, CA",33.6856969,-117.825981,119.0,"Travel Registered Nurse - Medsurg/Tele job available in Irvine, CA - Make $2,254wk"
"Chicago, IL",41.8755616,-87.6244212,534.0,Kodiak Healthcare Revenue Cycle Intelligence Consultant
"Columbus, OH",39.9622601,-83.0007065,149.0,"Travel Registered Nurse - Medsurg/Tele job available in Columbus, OH - Make $1,913wk"
"Jackson, MI",32.2998686,-90.1830408,7.0,"Travel Registered Nurse - Med/Surg job available in Jackson, MI - Make $1,834wk"
"Irvine, CA",33.6856969,-117.825981,119.0,Construction Litigation Attorney
"Gainesville, FL",29.6519684,-82.3249846,52.0,"Travel Registered Nurse - Medsurg/Tele job available in Gainesville, FL - Make $1,726wk"
"Jacksonville, FL",30.3321838,-81.655651,110.0,"Travel Registered Nurse - Telemetry job available in Jacksonville, FL - Make $1,609wk"
"Fargo, ND",46.877229,-96.789821,17.0,"Travel Registered Nurse - ICU/Critical Care job available in Fargo, ND - Make $2,389wk"
"Urbana, IL",40.1117174,-88.207301,16.0,"Travel Registered Nurse - ER/Trauma job available in Urbana, IL - Make $2,211wk"
"Brooklyn, NY",40.6526006,-73.9497211,76.0,"Travel Allied - Clinical Lab Scientist job available in Brooklyn, NY - Make $2,376wk"
"Lexington, KY",38.0464066,-84.4970393,53.0,"Travel Registered Nurse - Dialysis job available in Lexington, KY - Make $2,049wk"
"St Peters, MO",38.791612,-90.5958468,7.0,"Travel Registered Nurse - Telemetry job available in St Peters, MO - Make $2,169wk"
"Tampa, FL",27.9477595,-82.458444,146.0,Medical Services Support
"Atlanta, GA",33.7489924,-84.3902644,382.0,Medical Field Case Manager
"West Hollywood, CA",34.0923014,-118.3692894,9.0,"Data Scientist I, Revenue"
"Milwaukee, WI",43.0386475,-87.9090751,90.0,Business Development Manager
"San Diego, CA",32.7174202,-117.162772,235.0,Licensed Journeyman Electician
"San Leandro, CA",37.7249296,-122.1560768,9.0,Service Rep/ Courier
"Denver, CO",39.7392364,-104.984862,247.0,Territory Sales Manager
"Richmond, VA",37.5385087,-77.43428,116.0,Warehouse Part Time Overnight
"Coeur d'Alene, ID",47.6742994,-116.7811531,6.0,Warehouse Part Time Overnight
"Austin, TX",30.2711286,-97.7436995,347.0,Business Process Quality Designer (Maxis)
"Lexington, KY",38.0464066,-84.4970393,53.0,"Travel Allied - Vascular Tech job available in Lexington, KY - Make $2,862wk"
"Charlotte, NC",35.2272086,-80.8430827,247.0,Architectural Project Manager
"Albuquerque, NM",35.0841034,-106.650985,50.0,Sales Associate
"Long Beach, CA",33.7690164,-118.191604,52.0,Quality
"Austin, TX",30.2711286,-97.7436995,347.0,GCS Master Technician 72720
"Arlington, VA",38.8903961,-77.0841585,79.0,Sr Analyst Financial Reporting
"Allen, TX",33.1031744,-96.6705503,7.0,Sales Agent
"Austin, TX",30.2711286,-97.7436995,347.0,Accounting Specialist Senior
"Atlanta, GA",33.7489924,-84.3902644,382.0,Accounts Payable Specialist
"Charlotte, NC",35.2272086,-80.8430827,247.0,Architectural Project Manager
"Framingham, MA",42.2773177,-71.4165905,10.0,Registered Nurse (RN) Opportunity in Massachusetts
"Dallas, TX",32.7762719,-96.7968559,383.0,XTERIORS SPECIFICATIONS MANAGER
"Katy, TX",29.7857853,-95.8243956,35.0,Restaurant Assistant General Manager
"Philadelphia, PA",39.9527237,-75.1635262,209.0,Actuarial Analyst - REACH 2024
"Washington, MO",37.9559513,-90.879099,6.0,Retail Sales – Part Time
"Lebanon, PA",40.375713,-76.4626118,10.0,Full Time - Sales Associate - ProServices – Opening
"McDonough, GA",33.4473361,-84.1468616,9.0,Medical Field Case Manager
"Concord, NC",35.4094178,-80.5800049,7.0,Assistant Director of Nursing (ADON) - Home Health
"Roanoke, VA",37.270973,-79.9414313,17.0,"Phlebotomist- Roanoke, VA"
"Grand Junction, CO",39.0672568,-108.56448,14.0,Detailer / Car Wash - Grand Junction Subaru
"San Francisco, CA",37.7792588,-122.4193286,289.0,Microsoft Systems Specialist
"Austin, TX",30.2711286,-97.7436995,347.0,Production Team Partner - Mat Roller & Order Builder - UniFirst
"Topeka, KS",39.049011,-95.677556,6.0,CDL Shuttle and Transport Driver
"Portland, ME",43.6573605,-70.2586618,14.0,General Office Support Assistant- UniFirst
"Solon, OH",41.3897764,-81.4412259,7.0,Senior Process Engineering Manager (TAG)
"Chicago, IL",41.8755616,-87.6244212,534.0,Software Engineer
"San Diego, CA",32.7174202,-117.162772,235.0,Senior specialist - BIM
"Los Angeles, CA",34.0536909,-118.242766,366.0,Financial Professional (Remote- Entry Level)
"Plano, TX",33.0136764,-96.6925096,104.0,"Assistant Manager, Product Operations - Preston Park Village"
"Tempe, AZ",33.4255117,-111.940016,54.0,"Senior Accountant - Tempe, AZ"
"Lynchburg, VA",37.4137536,-79.1422464,13.0,Electronics Technician
"New York, United States",40.7127281,-74.0060152,167.0,UN Women: Audit Management Analyst - New York
"Austin, TX",30.2711286,-97.7436995,347.0,S5D Designer (3D MEP Designer) - Team Lead
"Cary, NC",35.7882893,-78.7812081,27.0,Cashier Part Time
"Dallas, TX",32.7762719,-96.7968559,383.0,Full Time - Delivery Coordinator - Day
"Napa, CA",38.2971367,-122.2855293,7.0,Trade Hospitality & Events Coordinator
"San Francisco, CA",37.7792588,-122.4193286,289.0,"Sr. Manager, Product Management - Assortment"
"Lebanon, TN",36.2079779,-86.2910945,12.0,Social Catering Manager
"Denver, CO",39.7392364,-104.984862,247.0,Fast Casual General Manager
"Thousand Oaks, CA",34.1705609,-118.8375937,15.0,Seasonal Sales Associate
"Hunt Valley, MD",39.4922608,-76.6589528,9.0,Senior Workers Comp Claims Adjuster
"Louisville, KY",38.2542376,-85.759407,87.0,"Travel Registered Nurse - PCU job available in Louisville, KY - Make $1,847wk"
"Minneapolis, MN",44.9772995,-93.2654692,141.0,Project Manager (Sign Industry)
"Tempe, AZ",33.4255117,-111.940016,54.0,"Senior Accountant - Tempe, AZ"
"New York, United States",40.7127281,-74.0060152,167.0,Consultant for mapping actors undertaking work to support countering pushback on gender equality - New York
"Austin, TX",30.2711286,-97.7436995,347.0,Stockroom Manager - UniFirst
"Philadelphia, PA",39.9527237,-75.1635262,209.0,Board Member
"Long Beach, CA",33.7690164,-118.191604,52.0,"Quality Manager - Long Beach (CA, US)"
"Nashville, TN",36.1622767,-86.7742984,175.0,Maintenance Utility Worker - UniFirst
"Monterey, CA",36.2231079,-121.387742,7.0,Restaurant Manager
"Los Angeles, CA",34.0536909,-118.242766,366.0,Commercial Lines Insurance Broker
"Memphis, TN",35.1460249,-90.0517638,57.0,Python Developer
"Charleston, SC",32.7884363,-79.9399309,44.0,Business Development Manager
"Pittsburgh, PA",40.4416941,-79.9900861,115.0,Retail Sales – Part Time
"Pompano Beach, FL",26.2378597,-80.1247667,11.0,Teller 20 hours Palm Aire
"Portland, OR",45.5202471,-122.674194,122.0,Senior Policy Manager - Slack
"Little Rock, AR",34.7465071,-92.2896267,33.0,"Neurophysiology Technician - $2,500 Sign-On Bonus"
"Tempe, AZ",33.4255117,-111.940016,54.0,"Senior Accountant - Tempe, AZ"
"Portland, OR",45.5202471,-122.674194,122.0,Technician
"Concord, NC",35.4094178,-80.5800049,7.0,Registered Nurse Unit Manager
"Fort Wayne, IN",41.0799898,-85.1386015,30.0,Outside Sales Representative - UniFirst
"Austin, TX",30.2711286,-97.7436995,347.0,GCS Maintenance Technician 73307
"Solon, OH",41.3897764,-81.4412259,7.0,Associate Packaging Specialist
"Edmond, OK",35.6571367,-97.4649038,13.0,Maintenance Supervisor
"Fargo, ND",46.877229,-96.789821,17.0,Full Time - Fulfillment Associate - Day
"Austin, TX",30.2711286,-97.7436995,347.0,Quality Designer (Maxis)
"Livermore, CA",37.6820583,-121.768053,13.0,Part Time Floor Supervisor- CALVIN KLEIN
"San Francisco, CA",37.7792588,-122.4193286,289.0,FP&A Manager
"Lebanon, TN",36.2079779,-86.2910945,12.0,Outlet Office Assistant
"Little Rock, AR",34.7465071,-92.2896267,33.0,Patient Access Representative I
"Los Angeles, CA",34.0536909,-118.242766,366.0,HVAC PM Engineer
"Phoenix, AZ",33.4484367,-112.074141,279.0,Career Development Program: Engineering Associate
"Las Vegas, NV",36.1672559,-115.148516,168.0,Community Mortgage Bank Sales Consultant (SAFE)
"Little Rock, AR",34.7465071,-92.2896267,33.0,"Registered EEG Technician - $5,000 Sign-On Bonus"
"Little Rock, AR",34.7465071,-92.2896267,33.0,"Registered EEG Technician - $10,000 Sign-On Bonus"
"Anchorage, AK",61.2163129,-149.894852,34.0,Delivery Driver
"Alpharetta, GA",34.0709576,-84.2747329,64.0,"Workplace Experience Manager - Downtown Atlanta, GA"
"Fort Worth, TX",32.753177,-97.3327459,112.0,Senior Java Developer
"Chandler, AZ",33.3062031,-111.841185,27.0,Field Superintendent
"Lakeland, FL",28.0394654,-81.9498042,20.0,Warehouse Equipment Operator
"Little Rock, AR",34.7465071,-92.2896267,33.0,Manager Occupational Health
"Sandy, UT",40.5710454,-111.8953815,14.0,Personal Banker SAFE Canyon Center
"St Louis, MO",38.6280278,-90.1910154,133.0,Senior Compliance Specialist; Consumer Lending
"St Louis, MO",38.6280278,-90.1910154,133.0,Lead Product Manager - WIM Money Movement
"North Las Vegas, NV",36.2005843,-115.121584,11.0,Community Mortgage Bank Sales Consultant (SAFE)
"North Las Vegas, NV",36.2005843,-115.121584,11.0,Community Mortgage Bank Sales Consultant (SAFE)
"Lincolnshire, IL",42.1900249,-87.9084039,7.0,Database Administrator - Microsoft Dynamics GP
"Little Rock, AR",34.7465071,-92.2896267,33.0,"Registered EEG Technician - $10,000 Sign-On Bonus"
"San Jose, CA",37.3361663,-121.890591,158.0,"Senior Program Manager, Site Reliability Engineering"
"Sandy, UT",40.5710454,-111.8953815,14.0,Teller 20 hrs Canyon Center
"Charlotte, NC",35.2272086,-80.8430827,247.0,Career Development Program: Technology Business Systems Associate
"Plano, TX",33.0136764,-96.6925096,104.0,Career Development Program: Engineering Associate
"Austin, TX",30.2711286,-97.7436995,347.0,Signature Inside Sales Associate
"Sunnyvale, CA",37.3688301,-122.036349,77.0,Web Marketing Associate Manager
"Los Angeles, California, United States",34.0536909,-118.242766,20.0,"Senior Premier Banker - NorthRidge, CA"
"Chicago, IL",41.8755616,-87.6244212,534.0,Senior Administrative Assistant
"Chicago, IL",41.8755616,-87.6244212,534.0,Tech Consulting / Azure Cloud Engineer
"Lakeland, FL",28.0394654,-81.9498042,20.0,Furniture Assembler
"Hopkinsville, KY",36.8657651,-87.4889532,6.0,Cashier Part Time
"Atlanta, GA",33.7489924,-84.3902644,382.0,SEO Specialist
"Austin, TX",30.2711286,-97.7436995,347.0,Sales Professional
"Calabasas, CA",34.1446643,-118.644097,10.0,Insomniac - Paid Spring Marketing Intern
San Francisco Bay Area,37.7884969,-122.3558473,162.0,Content Marketing Manager
"San Jose, CA",37.3361663,-121.890591,158.0,"Senior Program Manager, Systems Architecture"
"Tacoma, WA",47.2455013,-122.438329,29.0,IT Service Desk Specialist
"Tampa, FL",27.9477595,-82.458444,146.0,Configuration Management Analyst
"Springdale, AR",36.1867442,-94.1288142,7.0,Clinical Support Assistant; PRN
"Little Rock, AR",34.7465071,-92.2896267,33.0,"Neurophysiology Technician - $5,000 Sign-On Bonus"
"Chapel Hill, NC",35.9131542,-79.05578,19.0,Nurse
"Newark, DE",39.6828358,-75.7515682,22.0,Police Officer
"Pittsburgh, PA",40.4416941,-79.9900861,115.0,Senior Revenue Science Analyst
"Portland, OR",45.5202471,-122.674194,122.0,Behavior Specialist: Work with kids!
"Philadelphia, PA",39.9527237,-75.1635262,209.0,Teller I (US)
"Mount Laurel, NJ",39.934002,-74.8909988,7.0,AML Analyst I
"McLean, VA",38.93668525,-77.1858267942485,73.0,Quantitative Risk Analytics Senior - SAS/SQL (Hybrid - 3 Days in Office)
"Trenton, NJ",40.2203074,-74.7659,18.0,Assistant Nurse Manager - Cardiology Inpatient
"Baltimore, MD",39.2908816,-76.610759,109.0,Director of Outreach and Education
"Fairfax, VA",38.8156356,-77.2836849,32.0,Pega Developer
"Chesapeake, VA",36.7168315,-76.2494453,14.0,Treatment Plan Coordinator
"Urbana, IL",40.1117174,-88.207301,16.0,Assistant Dean for Communications and Marketing - College of Liberal Arts & Sciences
"Holly Springs, NC",35.6512655,-78.8336218,5.0,Emergency Room Technician - Emergency Department
"Boston, MA",42.3554334,-71.060511,324.0,Sr Equipment Technician / Plant Engineer
"San Antonio, TX",29.4246002,-98.4951405,124.0,Healthcare Treatment Specialist
"Las Vegas, NV",36.1672559,-115.148516,168.0,Field Consultant - Sacramento
"Boston, MA",42.3554334,-71.060511,324.0,Organizational Change Manager
"Dallas, TX",32.7762719,-96.7968559,383.0,"Rating Analyst, U.S. Public Finance – Not-For-Profit Healthcare"
"Fort Worth, TX",32.753177,-97.3327459,112.0,IT Service Desk Analyst
"Fort Lauderdale, FL",26.1223084,-80.1433786,65.0,Sales Manager
"Irvine, CA",33.6856969,-117.825981,119.0,"Apartments.com - Fullstack Software Engineer (.Net, C#)"
"Plano, TX",33.0136764,-96.6925096,104.0,Digital Marketing Advisor- Product Manager
"South San Francisco, CA",37.6535403,-122.4168664,21.0,"Research Associate II, Process Development"
"Orlando, FL",28.5421109,-81.3790304,171.0,Web Developer
"Santa Clara, CA",37.2333253,-121.6846349,77.0,Sr Software Engineer
"San Francisco, CA",37.7792588,-122.4193286,289.0,Sr. Clinical Research Coordinator - Office for Collaborative Research
"San Francisco, CA",37.7792588,-122.4193286,289.0,"Sr. Program Manager, Live Chat"
"Urbana, IL",40.1117174,-88.207301,16.0,Admissions and Records Officer - Media
"Oklahoma City, OK",35.4729886,-97.5170536,78.0,Service Manager
"Richardson, TX",32.9481789,-96.7297206,33.0,Sales Specialist
"San Mateo, CA",37.496904,-122.3330573,16.0,Senior Accountant
"San Francisco, CA",37.7792588,-122.4193286,289.0,"Director, Digital Marketing"
"Fresno, CA",36.7394421,-119.78483,37.0,Tower Technician II
"San Francisco, CA",37.7792588,-122.4193286,289.0,Social Work Associate
"Fairfield, CT",41.1412078,-73.2637258,5.0,Assistant Store Manager - Fairfield/Black Rock Turnpike
"McLean, VA",38.93668525,-77.1858267942485,73.0,Trad Analy Model Dev Sr.
"Raleigh, NC",35.7803977,-78.6390989,125.0,Rehab Therapy Aide
"Glastonbury, CT",41.7123218,-72.608146,12.0,In-Store Shopper Seasonal Part Time
"Urbana, IL",40.1117174,-88.207301,16.0,Enterprise System Specialist - Hybrid/Remote
"Costa Mesa, CA",33.6633386,-117.903317,27.0,Visual Merchandiser
"Houston, TX",29.7589382,-95.3676974,444.0,Retail Sales Associate
"Farmington Hills, MI",42.4853125,-83.3771553,12.0,Construction project manager
"Davenport, IA",41.5235808,-90.5770967,13.0,Supervisor Cust Service - Integrated Supply
"Torrance, CA",33.8371392,-118.3413606,45.0,Patient Account Rep - Government Programs (Mgd Medi-Cal) FT Days
"Torrance, CA",33.8371392,-118.3413606,45.0,Clinical DietitianI
"Melrose Park, IL",41.900299,-87.8569745,9.0,Inventory Control Clerk
"Easton, PA",40.6916081,-75.2099866,10.0,Lead Maintenance Technician
"Plano, TX",33.0136764,-96.6925096,104.0,"Store 1788-Service Operations Manager-Trophy Club, TX"
"New York, United States",40.7127281,-74.0060152,167.0,Executive Assistant
"Katy, TX",29.7857853,-95.8243956,35.0,Teacher -	3rd Grade Bilingual
"Atlanta, GA",33.7489924,-84.3902644,382.0,Remote Document Review Attorney
"Hillsboro, OR",45.5228939,-122.989827,22.0,Want free college tuition? Join the CSD team now!
"Los Angeles, CA",34.0536909,-118.242766,366.0,"Sales Representative, CoStar Data & Analytics - Los Angeles, CA"
"Boston, MA",42.3554334,-71.060511,324.0,Pastry Chef
"Huntsville, AL",34.729847,-86.5859011,34.0,Bobbi Brown Beauty Advisor - Part Time - Bridge Street
"Sacramento, CA",38.5810606,-121.493895,109.0,Tower Foreman
"Portland, OR",45.5202471,-122.674194,122.0,Want free college tuition? Join the CSD team now!
"Houston, TX",29.7589382,-95.3676974,444.0,"Registered Nurse (RN) II, Full-Time (Days) - Wound Care Center"
"San Francisco, CA",37.7792588,-122.4193286,289.0,Data Engineer
"Costa Mesa, CA",33.6633386,-117.903317,27.0,"Manager, Sales and Customer Service"
"Baltimore, MD",39.2908816,-76.610759,109.0,Material Handler
"Kansas City, MO",39.100105,-94.5781416,84.0,Customer Service Supervisor (Front End Support)
"Virginia Beach, VA",36.8529841,-75.9774183,20.0,Treatment Plan Coordinator
"Columbus, OH",39.9622601,-83.0007065,149.0,Senior Tech Lead
"Portland, OR",45.5202471,-122.674194,122.0,Licensed Practical Nurse-(Prevention of Amputations in Veterans Everywhere -PAVE)
"Denver, CO",39.7392364,-104.984862,247.0,Commercial Counsel - Midstream
"Gresham, OR",45.4997475,-122.4309766,6.0,Behavior Specialists ($20-$25/hour + Free College!)
"Portland, OR",45.5202471,-122.674194,122.0,Join our dynamic team as a Behavior Specialist!
Greater Houston,29.944719,-95.41607390828516,45.0,"Lead Process Control Engineer (Oil & Gas, Hydrogen, Chemicals)"
"Jacksonville, FL",30.3321838,-81.655651,110.0,Environmental Health Safety Specialist
"West Hollywood, CA",34.0923014,-118.3692894,9.0,Health Practitioners
"West Valley City, UT",40.6967254,-111.986821,7.0,Field Service Power Generation Technician
"Fayetteville, NC",35.0525759,-78.878292,7.0,Sr. Financial Analyst
"Springfield, MO",37.2081729,-93.2922715,27.0,Building Maintenance Engineer II
"Malvern, PA",40.036202,-75.5138959,20.0,Veterinary Technician
"New York, NY",40.7127281,-74.0060152,818.0,Security Architect - Windows - CTO Office
"Asheville, NC",35.595363,-82.5508407,31.0,Residential Data Collector
"Florida, United States",27.7567667,-81.4639835,58.0,iOS/Android Support
"Northbrook, IL",42.128704,-87.8265089,12.0,Marketing Specialist
"Atlanta, GA",33.7489924,-84.3902644,382.0,Senior Product Manager
"Victoria, TX",28.8026443,-96.9766308,5.0,MERCHANDISE ASSISTANT MANAGER
"Novato, CA",38.1061979,-122.5681191,10.0,"QC Analyst, QCA"
"Washington, DC",38.8950368,-77.0365427,262.0,"Data Analyst, Immediate Office (Req No. 2023-140); Closes 11/17/2023"
"Portland, OR",45.5202471,-122.674194,122.0,"Produce Manager-Barbur Blve, Portland, Oregon"
"Rancho Palos Verdes, CA",33.7483311,-118.3707683,6.0,CNA for Care Suites [Certified Nursing Assistant]
"Delray Beach, FL",26.4614625,-80.0728201,8.0,School Counselor
"Tracy, CA",37.7385507,-121.420139,7.0,Cost Accountant in Tracy
"Portland, OR",45.5202471,-122.674194,122.0,Behavior Specialists ($20-$25/hour + Paid Training!)
"Newark, NJ",40.735657,-74.1723667,43.0,Housing Inspections Supervisor
"Virginia Beach, VA",36.8529841,-75.9774183,20.0,Patient Service Representative
"Eugene, OR",44.0505054,-123.0950506,14.0,Patient Care Coordinator
"Santa Clarita, CA",34.4127963,-118.5538088,12.0,Retail Sales Associate
"Chapel Hill, NC",35.9131542,-79.05578,19.0,MERCHANDISE ASSISTANT MANAGER
"Princeton, NJ",40.3496953,-74.6597376,33.0,Consumer Plan - IT Lead
"Bellevue, WA",47.6144219,-122.192337,63.0,HR Representative Seattle Division
"Sterling Heights, MI",42.5803122,-83.0302033,8.0,Junior Thermal Management Engineer
"Denver, CO",39.7392364,-104.984862,247.0,Intellectual Property Attorney
"Lakeland, FL",28.0394654,-81.9498042,20.0,Revenue Science Advisor
"Indianapolis, IN",39.7683331,-86.1583502,112.0,Diesel Technician - 2nd Shift
"West Valley City, UT",40.6967254,-111.986821,7.0,Field Service Power Generation Technician
"McLean, VA",38.93668525,-77.1858267942485,73.0,Quantitative Analytics professional - Data Engineering (Hybrid - 3 Days in Office)
"Johns Creek, GA",34.0181557,-84.190196,9.0,"Senior, Project Management"
"Riverside, CA",33.7219991,-116.0372472,24.0,"Seasonal Retail Cosmetics Sales - Fragrances, Riverside Galleria At Tyler"
"Portland, OR",45.5202471,-122.674194,122.0,Purchasing Agent
"Las Vegas, NV",36.1672559,-115.148516,168.0,Team Member (Full Time & Part Time Storewide Opportunities)
"Los Alamos, NM",35.88137,-106.298959,10.0,Mechanical System Engineer (Nuclear Facilities Engineer 1/2)
"New York, NY",40.7127281,-74.0060152,818.0,Security Architect - EDR - CTO Office
"McKinney, TX",33.1976496,-96.6154471,25.0,Plant Production Laborer: Sign On Bonus Offered!
"Dallas, TX",32.7762719,-96.7968559,383.0,"Assistant Director, Registrar"
"Portland, OR",45.5202471,-122.674194,122.0,"Fuel Station Manager Baker City, Oregon"
"Alexandria, VA",38.8051095,-77.0470229,35.0,"Balducci's Catering Manager - Alexandria, VA"
"Gainesville, FL",29.6519684,-82.3249846,52.0,Physician (Psychiatry)
"Lakeland, FL",28.0394654,-81.9498042,20.0,Porter - Retreat at Lakeland
"Dallas, TX",32.7762719,-96.7968559,383.0,Wellness Sales Specialist - Dallas
"Las Vegas, NV",36.1672559,-115.148516,168.0,Leasing Consultant
"Austin, TX",30.2711286,-97.7436995,347.0,Intellectual Property Attorney
"Greenwood, IN",39.6136987,-86.1095429,8.0,Registered Nurse (RN)
"Columbus, OH",39.9622601,-83.0007065,149.0,Fabricator - Amada Operator (2nd Shift)
"Marietta, GA",33.9528472,-84.5496148,14.0,MAA FT Senior Sales Associate Store 5908
"Dallas, TX",32.7762719,-96.7968559,383.0,"Ratings Analyst, U.S. Public Finance – Local Government Group, West Region"
"New York, NY",40.7127281,-74.0060152,818.0,Sales Operations Assistant (Seasonal)
"Washington, United States",38.8950368,-77.0365427,28.0,Program Manager
"Sunrise, FL",26.1666888,-80.2787573,5.0,"Vans Store Manager (Sawgrass Mills, Sunrise, FL)"
"Austin, TX",30.2711286,-97.7436995,347.0,Albertsons/ Tom Thumb - Grocery Manager- DFW Area
"Aliso Viejo, CA",33.5761376,-117.7258122,17.0,Sales Associate
"San Francisco, CA",37.7792588,-122.4193286,289.0,Senior Policy Manager - Slack
"Peoria, IL",40.6938609,-89.5891008,25.0,Surgery Scheduling Pre-Authorization Specialist
"San Diego, CA",32.7174202,-117.162772,235.0,Intellectual Property Attorney
"Wichita, KS",37.6922361,-97.3375448,41.0,Wellness Sales Specialist - Kansas
"North Carolina, United States",35.6729639,-79.0392919,39.0,Bookkeeping Manager
"Indianapolis, IN",39.7683331,-86.1583502,112.0,Qualified Medication Aide (QMA)
"Delray Beach, FL",26.4614625,-80.0728201,8.0,GC Retail Customer Service Manager Store 791
"Vancouver, WA",45.6306954,-122.6744557,41.0,Maintenance Technician / Mechanic
"Durham, NC",35.996653,-78.9018053,78.0,"Manager, Quality Systems"
"Indianapolis, IN",39.7683331,-86.1583502,112.0,Operations and Human Resources Manager
"Silver Spring, MD",38.9959461,-77.0276231,24.0,Physical Therapist
"Centennial, CO",39.579155,-104.8769227,12.0,Lead Preschool Teacher
"San Francisco, CA",37.7792588,-122.4193286,289.0,Of Counsel Employment Attorney
"Missouri, United States",38.7604815,-92.5617875,19.0,Oracle Database Administrator
"Shreveport, LA",32.5135356,-93.7477839,14.0,"Fire Alarm Expert, Special Hazards Expert"
"Madison, WI",43.074761,-89.3837613,87.0,Director of Regulatory Affairs - HYBRID
"San Francisco, CA",37.7792588,-122.4193286,289.0,Software Engineer II
"San Diego County, CA",32.9637838,-116.7706277,8.0,Senior Quality Engineer (Medical Device Experience Required)
"Shelby Township, MI",43.5974492,-86.33795091855055,5.0,Salesperson
"Easton, PA",40.6916081,-75.2099866,10.0,Registered Nurse - RN - LTC/SNF
Los Angeles Metropolitan Area,-11.9862556,-77.0096138,101.0,Compliance Specialist
"Orlando, FL",28.5421109,-81.3790304,171.0,Clarity PPM Tools Specialist
"Beaumont, TX",30.0860459,-94.1018461,11.0,Accounting Clerk
"Hickory, NC",35.7333312,-81.3442915,13.0,ASSISTANT STORE MANAGER
"Spring, TX",30.0795707,-95.4187924,10.0,"Project Delivery Manager (Wind & Solar), Houston"
"Miami, FL",25.7741728,-80.19362,231.0,Sous Chef
"Petaluma, CA",38.295411,-122.61369350203252,12.0,Auto Detailer / Shop Porter - Novato
"San Jose, CA",37.3361663,-121.890591,158.0,Accounts Receivable Clerk
"Portland, OR",45.5202471,-122.674194,122.0,Want a FREE Master's in ABA? Apply today!
"San Francisco, CA",37.7792588,-122.4193286,289.0,Intellectual Property Attorney
"Aliso Viejo, CA",33.5761376,-117.7258122,17.0,Dishwasher
"Rancho Palos Verdes, CA",33.7483311,-118.3707683,6.0,Caregiver (All Shifts Available)
"Aliso Viejo, CA",33.5761376,-117.7258122,17.0,Cook
"Pittsburgh, PA",40.4416941,-79.9900861,115.0,Recruiting Coordinator (CONTRACT)
"Ramsey, NJ",41.0573188,-74.1409771,8.0,HR Technology Solutions Lead
"Carmel, IN",39.9784186,-86.1283681,6.0,Cook
"Springfield, VA",38.7767435,-77.1807019310668,8.0,MAA FT Senior Sales Associate Store 034
"California, United States",36.7014631,-118.755997,162.0,Medical Assistant
"New York, NY",40.7127281,-74.0060152,818.0,Public Relations Intern
"Aventura, FL",25.9653698,-80.1428234,7.0,Accounts Payable Manager
"Florida, United States",27.7567667,-81.4639835,58.0,Junior Salesforce Solution Architect
"Salem, OR",44.9391565,-123.033121,9.0,Registered Dental Hygienist
"New York, NY",40.7127281,-74.0060152,818.0,"Senior Strategic Operations Manager, Sales Planning and Compensation"
"Southfield, MI",42.4733689,-83.2218731,26.0,Electrical Systems Engineer
"Easton, PA",40.6916081,-75.2099866,10.0,Registered Nurse - RN - LTC/SNF
"Fort Worth, TX",32.753177,-97.3327459,112.0,Journeyman Electrician
"New York, NY",40.7127281,-74.0060152,818.0,Support/Stock Associate - Meatpacking
"Dallas, TX",32.7762719,-96.7968559,383.0,Senior Portfolio Manager
"Warsaw, IN",41.2381017,-85.8530544,6.0,Human Resources Manager
"Appleton, WI",44.2613967,-88.4069744,12.0,Senior Accountant
"New York, NY",40.7127281,-74.0060152,818.0,Personal Shopping Seller Assistant
"Charlottesville, VA",38.029306,-78.4766781,27.0,Sales Specialist
"Phoenix, AZ",33.4484367,-112.074141,279.0,Mortgage Loan Officer
"Alexandria, VA",38.8051095,-77.0470229,35.0,"Balducci's Full Time Hourly Bakery Supervisor - Alexandria, VA"
"Houston, TX",29.7589382,-95.3676974,444.0,"Store 2672-Department Manager Floral-Houston, TX"
"West Des Moines, IA",41.5644476,-93.7594059,13.0,ASC- Materials Manager
"Dallas, TX",32.7762719,-96.7968559,383.0,3582 Administrative Coordinator-RMKTTX-WP
"Mesa, AZ",33.4151005,-111.831455,40.0,RN - Medical-Surgical
"Boise, ID",43.6166163,-116.200886,51.0,Wellness Sales Specialist - Boise
"Tulsa, OK",36.1563122,-95.9927516,53.0,Wellness Sales Specialist - Tulsa
"Portland, OR",45.5202471,-122.674194,122.0,RBT: In-Clinic and Full Time Options! (ABA experience required)
"Vancouver, WA",45.6306954,-122.6744557,41.0,Maintenance Manager (Relocation Available)
"Salt Lake City, UT",40.7596198,-111.886797,117.0,Territory Sales Manager - Residential
"Tustin, CA",33.7458511,-117.826166,6.0,"Part-Time Associate Banker - Tustin, CA (30Hrs)"
"California, United States",36.7014631,-118.755997,162.0,Workshop Facilitator
"Nevada, United States",39.5158825,-116.853722,9.0,Nurse Practitioner
"Atlanta, GA",33.7489924,-84.3902644,382.0,"Regional Sales Manager, Urology/Gynecology - South"
"Frederick, MD",39.415779,-77.4127562,21.0,Junior Designer
"Stamford, CT",41.0534302,-73.5387341,39.0,Trial Attorney
"Raleigh, NC",35.7803977,-78.6390989,125.0,Heating Air Conditioning Technician
"Norfolk, VA",36.8448348,-76.2863999,23.0,Veterinary Surgeon
"Boston, MA",42.3554334,-71.060511,324.0,Technology Specialist
"San Francisco, CA",37.7792588,-122.4193286,289.0,Global Programs Events Manager
"Newark, NJ",40.735657,-74.1723667,43.0,Audio Visual Live Event Engineer
"El Segundo, CA",33.917028,-118.4156337,31.0,Treasury Analyst
"Southfield, MI",42.4733689,-83.2218731,26.0,Controls Software Engineer
"Newark, NJ",40.735657,-74.1723667,43.0,Researcher PHD Student
"Chicago, IL",41.8755616,-87.6244212,534.0,Derivatives Operations Specialist
"Charlotte, NC",35.2272086,-80.8430827,247.0,FX Operations Analyst
"Irvine, CA",33.6856969,-117.825981,119.0,IT Asset Management Specialist 
"Milpitas, CA",37.4332273,-121.8989248,15.0,Lobby Ambassador (39475)
"New York, United States",40.7127281,-74.0060152,167.0,Media Relations Specialist (Legal Directories Specialist)
"Lexington, KY",38.0464066,-84.4970393,53.0,Registered Dental Hygienist
"Los Angeles, CA",34.0536909,-118.242766,366.0,Corporate Counsel | AmLaw 100 Firm 
"Cincinnati, OH",39.1014537,-84.5124602,94.0,Pharmacy Technician
"Aliso Viejo, CA",33.5761376,-117.7258122,17.0,"Server, Waiter, Waitress"
"New York, United States",40.7127281,-74.0060152,167.0,Communications Specialist
"Peoria, IL",40.6938609,-89.5891008,25.0,Registered Nurse RN Women's Care Unit
"Peoria, IL",40.6938609,-89.5891008,25.0,Security Officer
"Milwaukee, WI",43.0386475,-87.9090751,90.0,HVAC Outsides Sales Representative 
"Nebraska, United States",41.7370229,-99.5873816,9.0,Investment Service Specialist
"Louisiana, United States",30.8703881,-92.007126,10.0,UI/UX Designer
"New York, United States",40.7127281,-74.0060152,167.0,Director of Sales
"Jacksonville, FL",30.3321838,-81.655651,110.0,Senior Credit Risk Analyst
"Chicago, IL",41.8755616,-87.6244212,534.0,Digital Media Supervisor
"Los Angeles, CA",34.0536909,-118.242766,366.0,Mergers and Acquisitions Manager
"Princeton, NJ",40.3496953,-74.6597376,33.0,National Account Executive
"Santa Clarita, CA",34.4127963,-118.5538088,12.0,Fulfillment Manager
"Scottsdale, AZ",33.4942189,-111.926018,78.0,Senior Accountant
"Philadelphia, PA",39.9527237,-75.1635262,209.0,Therapist-Family Based Specialty BHID
"York, PA",39.962493,-76.7276989,22.0,Accounting Associate
"San Jose, CA",37.3361663,-121.890591,158.0,Director of Development
"Los Angeles, CA",34.0536909,-118.242766,366.0,International Brand President
"Anchorage, AK",61.2163129,-149.894852,34.0,Engineering Intern- DEHE Tribal Utility Support
"Fairview, OR",45.5377902,-122.4472125,6.0,Campus Monitor
"Redmond, WA",47.6694141,-122.1238767,70.0,Program Manager Non-Tech 2
"Sacramento, CA",38.5810606,-121.493895,109.0,Senior Developer
Los Angeles Metropolitan Area,-11.9862556,-77.0096138,101.0,Billing Specialist
"Des Moines, IA",41.5868654,-93.6249494,51.0,Block Advisor Team Leader
"Los Angeles, CA",34.0536909,-118.242766,366.0,Regional Account Director
"Akron, OH",41.083064,-81.518485,22.0,Insurance New Business Specialist
"Anaheim, CA",33.8347516,-117.911732,28.0,Quality Assurance Manager
"Glendale, CA",34.1469416,-118.2478471,19.0,URGENT CARE NURSE PRACTITIONER (PART-TIME)
"Los Angeles, CA",34.0536909,-118.242766,366.0,Intellectual Property Attorney
"Lima, OH",40.741735,-84.1156539566922,9.0,Specialist Quality Assurance
"Sterling Heights, MI",42.5803122,-83.0302033,8.0,Automated Test Equipment (ATE) Engineer (5-7 years&#39; experience)
"Sterling Heights, MI",42.5803122,-83.0302033,8.0,Program Protection Platform Cybersecurity Engineer
"Stockton, CA",37.9577016,-121.290779,26.0,Maintenance Technician - Facilities
"Dallas, TX",32.7762719,-96.7968559,383.0,Repair Technician
"Lafayette, LA",30.2262187,-92.0178202,8.0,Seasonal Beauty Advisor
"Arizona, United States",34.395342,-111.763275,27.0,Direct Sales Representative - Remote
"Aventura, FL",25.9653698,-80.1428234,7.0,Staff Accountant
"Silver Spring, MD",38.9959461,-77.0276231,24.0,MRI Technologist
"Texas, United States",31.2638905,-98.5456116,90.0,Analyst II Infrastructure Services
"Arizona, United States",34.395342,-111.763275,27.0,Oracle Database Administrator
"Las Vegas, NV",36.1672559,-115.148516,168.0,Certified Surgical Technologist
"Orange, CA",33.750631,-117.8722311,21.0,Workers' Compensation Senior Counsel
"Sacramento, CA",38.5810606,-121.493895,109.0,Facilities Project Manager
"Needham, MA",42.2802645,-71.2360624,10.0,Registered Nurse - RN - Med Surge
"Atlanta, GA",33.7489924,-84.3902644,382.0,Litigation Paralegal
"New York, NY",40.7127281,-74.0060152,818.0,Marketing Operations Coordinator
"New York, NY",40.7127281,-74.0060152,818.0, Chief Audit Executive (CAE)
"Cumming, GA",34.2073196,-84.1401926,8.0,Car Detailer
"Frederick, MD",39.415779,-77.4127562,21.0,Technical Solutions Architect- Federal Govt Project (Public Trust Clearance required)
"New York, NY",40.7127281,-74.0060152,818.0,Global Marketing Operations Coordinator
San Francisco Bay Area,37.7884969,-122.3558473,162.0,Sr. to Lead Data Scientist - AML / Anti-Money Laundering
"Redmond, WA",47.6694141,-122.1238767,70.0,Java / Data / NET Internship ( Fulltime Possibility )
"Anchorage, AK",61.2163129,-149.894852,34.0,Behavioral Health Quality Assurance Manager
"Manhattan, NY",40.788655250000005,-73.9603027827792,30.0,Pediatrician
"Denver, CO",39.7392364,-104.984862,247.0,Associate Director of Enrollment and Data Analytics - Josef Korbel School of International Studies
"Los Angeles, CA",34.0536909,-118.242766,366.0,Clinical Educator TherOx
"New York, United States",40.7127281,-74.0060152,167.0,Communications Specialist
"Newtown Square, PA",39.9868117,-75.4007633,10.0,"Respiratory Therapist, RRT - Flexibility and Premium Pay"
"Philadelphia, PA",39.9527237,-75.1635262,209.0,Teaching Assistant
"Stockton, CA",37.9577016,-121.290779,26.0,Press Operator - Union (Swing)
"New York, NY",40.7127281,-74.0060152,818.0,Intellectual Property Attorney
"Torrance, CA",33.8371392,-118.3413606,45.0,"Part-Time Associate Banker - Torrance, CA (25Hrs)"
"California, United States",36.7014631,-118.755997,162.0,Quality Assurance Engineer
"Austin, TX",30.2711286,-97.7436995,347.0,"Sr. Manager, Engineering"
"Cincinnati, OH",39.1014537,-84.5124602,94.0,Field Implementation Specialist
"Santa Ana, CA",33.7494951,-117.873221,27.0,Product Analyst
"Omaha, NE",41.2587459,-95.9383758,73.0,Automotive Technician
"Sunnyvale, CA",37.3688301,-122.036349,77.0,Software Engineer II
"North Charleston, SC",32.8546197,-79.9748103,13.0,Production Manager (Deep Foundations): $100k-$130k + Relocation Expenses (If Needed)
"Tempe, AZ",33.4255117,-111.940016,54.0,Client Support Rep
"Beverly, MA",42.5489744,-70.8781883,9.0,REGISTERED NURSE - RN - MEDICAL SURGICAL - MED SURG
"Tigard, OR",45.4307473,-122.771933,12.0,Landscape Architect
Greater Boston,42.383726949999996,-71.07411377680253,34.0,General labor
"Atlanta, GA",33.7489924,-84.3902644,382.0,Supplier Performance Analyst
"White Plains, NY",41.0339862,-73.7629097,18.0,Sales Associate - Draw Vs Commission
"Cary, NC",35.7882893,-78.7812081,27.0,Java Developer (Python and SQL)
"Los Angeles, CA",34.0536909,-118.242766,366.0,"Entertainment, Media & Sports Law Associate"
"Los Angeles, CA",34.0536909,-118.242766,366.0,Social Media Marketing Intern
"Los Angeles, CA",34.0536909,-118.242766,366.0,Executive Assistant to Family Office
"Anchorage, AK",61.2163129,-149.894852,34.0,Assistant Case Manager I - General Surgery - Full-Time
"Burlington, MA",42.5048167,-71.1956111,14.0,Area Supervisor
"Lakewood, NJ",40.0978929,-74.2176435,6.0,RN Registered Nurse - Medical/Behavioral - Part Time Night
"Dallas, TX",32.7762719,-96.7968559,383.0,Sr. Network Engineer
"Los Angeles, CA",34.0536909,-118.242766,366.0,Estimator
"New York, United States",40.7127281,-74.0060152,167.0,100 % REMOTE Benefit Coordinator
"California, United States",36.7014631,-118.755997,162.0,Account Executive
"Atlanta, GA",33.7489924,-84.3902644,382.0,REGISTERED NURSE - LONG TERM ACUTE CARE (LTAC)
"New York, NY",40.7127281,-74.0060152,818.0,Manager of Field Training Associates
San Francisco Bay Area,37.7884969,-122.3558473,162.0,Marketing Manager
Los Angeles Metropolitan Area,-11.9862556,-77.0096138,101.0,Legal Biller
"Los Angeles, CA",34.0536909,-118.242766,366.0,Litigation Paralegal - South Bay location!
"Hillsboro, OR",45.5228939,-122.989827,22.0,Engineering Coordinator
"New York, United States",40.7127281,-74.0060152,167.0,Trabajo en red
"Richmond, VA",37.5385087,-77.43428,116.0,Virtual Medical Receptionist/Office Assistant
"Tempe, AZ",33.4255117,-111.940016,54.0,Senior Growth Strategist
"Redmond, WA",47.6694141,-122.1238767,70.0,Software Developer
"Northbrook, IL",42.128704,-87.8265089,12.0,Hiring Bussers/Food-Runners!
"Anaheim, CA",33.8347516,-117.911732,28.0,Assistant Community Association Manager - part time (ACA2023-6233)
"Santa Monica, CA",34.0194704,-118.491227,31.0,Project Manager
"Miami, FL",25.7741728,-80.19362,231.0,Hiring Bussers/Food Runners!
"Miami, FL",25.7741728,-80.19362,231.0,Hiring Hosts!
"Saratoga Springs, NY",43.0821793,-73.7853915,6.0,Supervisor/Manager
"San Jose, CA",37.3361663,-121.890591,158.0,Commercial Account Manager
"Texas City, TX",29.396013,-94.9175485,6.0,Oracle Database Administrator
"Dallas, TX",32.7762719,-96.7968559,383.0,Rates & Regulatory Proj Mgr
"Redding, CA",40.5863563,-122.391675,9.0,Electric Utility Analyst - Power Settlements
"San Francisco, CA",37.7792588,-122.4193286,289.0,Developer Channels Admin Support
"San Francisco, CA",37.7792588,-122.4193286,289.0,Product Design Manager
"Springfield, MO",37.2081729,-93.2922715,27.0,Foodservice Buyer
"Orlando, FL",28.5421109,-81.3790304,171.0,Customer Service Representative
"Washington, DC",38.8950368,-77.0365427,262.0,Patent Attorney
"Atlanta, GA",33.7489924,-84.3902644,382.0,Information Technology Buyer
"Redmond, WA",47.6694141,-122.1238767,70.0,Hardware Test Engineer-Gaming Console testing)
"Evansville, IN",37.970495,-87.5715641,17.0,Consumer Compliance Testing Consultant
"California, United States",36.7014631,-118.755997,162.0,Solution Sales Executive; IoT & Engineering Services
"San Francisco, CA",37.7792588,-122.4193286,289.0,Lobby Ambassador (39473)
"Alpharetta, GA",34.0709576,-84.2747329,64.0,Lobby Ambassador (39432)
"Irvine, CA",33.6856969,-117.825981,119.0,Research And Development Engineer
"California, United States",36.7014631,-118.755997,162.0,Director of HR
"Los Angeles, CA",34.0536909,-118.242766,366.0,Marketing Director
"Fairview, OR",45.5377902,-122.4472125,6.0,Educational Assistant Resource
"Phoenix, AZ",33.4484367,-112.074141,279.0,Automation and IT gate technician 
"Tualatin, OR",45.3838546,-122.766351,7.0,Jr. BIM Modeler
"Washington, DC",38.8950368,-77.0365427,262.0,Hiring Hosts!
"San Carlos, CA",37.504936,-122.261823,15.0,Battery Safety Engineer
"San Francisco, CA",37.7792588,-122.4193286,289.0,"Senior Product Designer, Merchant Finance"
"San Diego, CA",32.7174202,-117.162772,235.0,"Director, Commercial Strategy Planning & Growth Lead"
"New York, NY",40.7127281,-74.0060152,818.0,"Associate, Technical Solutions"
"Las Vegas, NV",36.1672559,-115.148516,168.0,Senior Systems Engineer 
"Hartford, CT",41.764582,-72.6908547,47.0,Bilingual Recovery Support Specialist
"St George, UT",37.104153,-113.584131,8.0,Door to Door Canvasser St.George
"Denver, CO",39.7392364,-104.984862,247.0,Youth Assistant
Los Angeles Metropolitan Area,-11.9862556,-77.0096138,101.0,Fund Administrator
"San Jose, CA",37.3361663,-121.890591,158.0,Construction Project Manager
"Houston, TX",29.7589382,-95.3676974,444.0,Management Trainee-Floating Assistant Store Manager
San Francisco Bay Area,37.7884969,-122.3558473,162.0,Global Payroll Leader
"Phoenix, AZ",33.4484367,-112.074141,279.0,Product Manager (Banking)
"Maple Grove, MN",45.0984983,-93.4419222,8.0,Supply Chain Strategist
"New York, NY",40.7127281,-74.0060152,818.0,Special Events Intern - Generation H
"Los Angeles, CA",34.0536909,-118.242766,366.0,Healthcare Attorney | B-Corp Firm
"San Marcos, CA",33.1352995,-117.1743395,9.0,Data Entry Specialist
"Tualatin, OR",45.3838546,-122.766351,7.0,BIM Modeler
"Dallas, TX",32.7762719,-96.7968559,383.0,Event Coordinator [72959]
"Los Angeles, CA",34.0536909,-118.242766,366.0,Audio Visual Project Engineer
San Francisco Bay Area,37.7884969,-122.3558473,162.0,Loan & Program Administrator
"Phoenix, AZ",33.4484367,-112.074141,279.0,"Environment, Health and Safety Manager"
"Las Vegas, NV",36.1672559,-115.148516,168.0,"Staff Research Scientist, Archaeologist"
"Winter Park, FL",28.5977707,-81.3510264,7.0,Store Manager
"Fort Worth, TX",32.753177,-97.3327459,112.0,Bench Jeweler
"Brooklyn, NY",40.6526006,-73.9497211,76.0,Store Manager
"Charlotte, NC",35.2272086,-80.8430827,247.0,Retail Sales Operations Analyst
"Poughkeepsie, NY",41.7065539,-73.9283672,6.0,"Business Solutions Associate (2024)- Poughkeepsie, NY"
"Lafayette, IN",40.4191229,-86.8919011,16.0,Part Time Retail Merchandiser - Lafayette IN 47909
"Pasadena, CA",34.1476507,-118.144155,44.0,Global Account Manager
"Glendale, CA",34.1469416,-118.2478471,19.0,Training Coordinator
"Long Beach, CA",33.7690164,-118.191604,52.0,Structural & Payload Design Engineer 3  -  61157
"Philadelphia, PA",39.9527237,-75.1635262,209.0,Global Account Manager
"San Diego, CA",32.7174202,-117.162772,235.0,Senior Field Technician
San Francisco Bay Area,37.7884969,-122.3558473,162.0,Global Account Manager
"Washington, DC",38.8950368,-77.0365427,262.0,"Director, Information Technology - Washington DC"
"Oklahoma City, OK",35.4729886,-97.5170536,78.0,"Fiber Technician, Oklahoma City, OK"
"Chicago, IL",41.8755616,-87.6244212,534.0, Field Technician Support Analyst
"Miami, FL",25.7741728,-80.19362,231.0,Pre-Sales and Engagement Leader
"New York, NY",40.7127281,-74.0060152,818.0,Associate Business Affairs Manager
"Memphis, TN",35.1460249,-90.0517638,57.0,Event Support Analyst
"San Diego, CA",32.7174202,-117.162772,235.0,Administrative Assistant
"Delaware, United States",38.6920451,-75.4013315,9.0,Credential program Manager
"Austin, TX",30.2711286,-97.7436995,347.0,Procurement Specialist
"Jersey City, NJ",40.7215682,-74.047455,70.0,Associate Business Consultant
"Greenville, SC",34.851354,-82.3984882,57.0,Territory Sales Executive
"Cincinnati, OH",39.1014537,-84.5124602,94.0,Pharmacy Manager
"Chicago, IL",41.8755616,-87.6244212,534.0,Scheduler - Cost Controller
"King of Prussia, PA",40.0908111,-75.3832484,18.0,Bridge Project Manager
"San Antonio, TX",29.4246002,-98.4951405,124.0,Admin - Reception
"Plano, TX",33.0136764,-96.6925096,104.0,Store Management Trainee
"Concord, CA",37.9768525,-122.0335624,18.0,Administrative Assistant
"Healdsburg, CA",38.583011,-122.8636039292566,6.0,Server
"Healdsburg, CA",38.583011,-122.8636039292566,6.0,Cook
"Jersey City, NJ",40.7215682,-74.047455,70.0,RN Full Time Night - ICU
"Detroit, MI",42.3315509,-83.0466403,69.0,Ultrasound Technologist Nights FT Sign on Bonus available
"Phoenix, AZ",33.4484367,-112.074141,279.0,Patient Advocate at Abrazo Scottsdale
"Glendale, AZ",33.5386858,-112.185994,13.0,Assistant Store Manager (BILINGUAL)
"Grand Prairie, TX",32.7459645,-96.9977846,12.0,Store Manager (Bilingual)
"Austin, TX",30.2711286,-97.7436995,347.0,"Career Day in Austin, TX"
"Phoenix, AZ",33.4484367,-112.074141,279.0,Development Manager
"California, United States",36.7014631,-118.755997,162.0,Data Engineer USA citizenship required REMOTE
"Oakland, CA",37.8044557,-122.271356,55.0,Communications Specialist
"Seattle, WA",47.6038321,-122.330062,257.0,Principal Civil Engineer - Regulated Water
"Portland, OR",45.5202471,-122.674194,122.0,Revenue Insights and Analytics Finance Manager
"Savannah, GA",32.0790074,-81.0921335,35.0,Patient Care Technician(PCT)
"Latham, NY",42.7444055,-73.761563,7.0,Fund Accountant
"Erie, PA",42.1294712,-80.0852695,10.0,Part Time Territory Supervisor - Erie PA 16503
"Washington, DC",38.8950368,-77.0365427,262.0,Data Collector (Part-Time)
"San Diego, CA",32.7174202,-117.162772,235.0,Senior Accountant
"Chelmsford, MA",42.5968617,-71.3517602,8.0,Civil Engineering Intern - Summer 2024
"Washington, DC",38.8950368,-77.0365427,262.0,Lead Electrical Engineer
"Milwaukee, WI",43.0386475,-87.9090751,90.0,HRIS Business / Systems Analyst
"Fort Worth, TX",32.753177,-97.3327459,112.0,"Research Scientist I, Formulation"
"Herndon, VA",38.9695316,-77.3859479,36.0,"Manager, EH&S and Compliance- Herndon VA"
"Philadelphia, PA",39.9527237,-75.1635262,209.0,Armed Security Officer - Philadelphia NMA
"Vienna, VA",38.9013729,-77.2651762,18.0,Learning Solutions Architect III
"Detroit, MI",42.3315509,-83.0466403,69.0,Global Account Manager
"Salt Lake City, UT",40.7596198,-111.886797,117.0,"Account Executive, Medium Enterprise, Customer Base - Healthcare"
"Anniston, AL",33.6624824,-85.8283224,6.0,"Maintenance Technician, Day & Rotating Shift"
"Vienna, VA",38.9013729,-77.2651762,18.0,Global Account Manager
"Atlanta, GA",33.7489924,-84.3902644,382.0,Survey Crew Member
"New York, NY",40.7127281,-74.0060152,818.0,Product Manager
"Maryland, United States",39.5162401,-76.9382069,22.0,Telemedicine Dentist & Legal Owner of Record of New Company
"Auburn Hills, MI",42.6875323,-83.2341028,36.0,Instrument Engineer [47569]
"East Syracuse, NY",43.0653446,-76.0785332,7.0,IT Business Analyst - Manufacturing IT Operations (Onsite) at LOTTE Biologics
"Deerfield, IL",42.1711365,-87.8445119,8.0,Pharmacy Technician
"New York, United States",40.7127281,-74.0060152,167.0,Legal Directories Specialist (Media Relations)
"Germantown, MD",39.17130815,-77.26557848822242,10.0,Clinical Director
"Dallas, TX",32.7762719,-96.7968559,383.0,Accounting Manager
"Los Angeles, California, United States",34.0536909,-118.242766,20.0,MOBILE CLINIC NURSE PRACTITIONER
"Greenwood Village, CO",39.6172101,-104.950814,19.0,Scrum Master
"Dallas, TX",32.7762719,-96.7968559,383.0,Staff Accountant
"Oakbrook Terrace, IL",41.8500302,-87.9645077,11.0,Hiring Bussers!
"San Marcos, CA",33.1352995,-117.1743395,9.0,Customer Service Representative
"San Carlos, CA",37.504936,-122.261823,15.0,Motor Control Software Engineer
"Washington, DC",38.8950368,-77.0365427,262.0,"Sr. Manager I, Government Relations"
"Chicago, IL",41.8755616,-87.6244212,534.0,Data Analyst
Los Angeles Metropolitan Area,-11.9862556,-77.0096138,101.0,Construction Project Manager
"Parsippany, NJ",40.8578772,-74.4259866,25.0,Retail Supervisor
"Florham Park, NJ",40.7881643,-74.3891647,9.0,"Customer Experience Specialist, Care Chemicals, BASF, Florham Park, NJ (Hybrid)"
"Wyandotte, MI",39.1090458,-94.767624,6.0,EPC Advanced Plant Trainee
"Portland, ME",43.6573605,-70.2586618,14.0,Assistant Project Manager
"Tarrytown, NY",41.0762077,-73.8587461,7.0,Commercial Manager (Underwriting Associate Leader - Middle Market)
"Chicago, IL",41.8755616,-87.6244212,534.0,"Manager, Development Operationss"
"New York, NY",40.7127281,-74.0060152,818.0,Senior Designer FTY KIDS
"Dallas, TX",32.7762719,-96.7968559,383.0,Desktop Support Specialist
"Secaucus, NJ",40.7899291,-74.0566735,13.0,Accounting Manager
"Baton Rouge, LA",30.4494155,-91.1869659,30.0,Sanitarian 5
"Worcester, MA",42.2625621,-71.8018877,34.0,"Coordinator, Surveyor"
"Southfield, MI",42.4733689,-83.2218731,26.0,Online Casino Dealer
"Tallahassee, FL",30.4380832,-84.2809332,39.0,Court Security Officer
"Morrisville, NC",35.824341,-78.8300321,13.0,Cybersecurity Engineer II
"Winchester, VA",39.1852184,-78.1652404,12.0,Scrum Master IV
"Houston, TX",29.7589382,-95.3676974,444.0,Global Account Manager
"Phoenix, AZ",33.4484367,-112.074141,279.0,ICS (Industrial Control Systems) Cybersecurity Associate Manager
San Francisco Bay Area,37.7884969,-122.3558473,162.0,Global Account Manager
"Phoenix, AZ",33.4484367,-112.074141,279.0,Area Superintendent
"Austin, TX",30.2711286,-97.7436995,347.0,Sr. Partner Business Intelligence Analyst
"Houston, TX",29.7589382,-95.3676974,444.0,Global Account Manager
"Washington, DC",38.8950368,-77.0365427,262.0,Assistant Controller North America - Washington DC
San Francisco Bay Area,37.7884969,-122.3558473,162.0,Global Account Manager
"Washington, DC",38.8950368,-77.0365427,262.0,"Contracts Specialist, Washington DC"
"Salem, OR",44.9391565,-123.033121,9.0,Quality Control Analyst
"Minnetonka, MN",44.9405086,-93.4638936,13.0,Operator I - 1st Shift
"Seattle, WA",47.6038321,-122.330062,257.0,AppDynamics Commercial Select Sales Specialist - Pac/NW
"Billerica, MA",42.5584264,-71.268947,7.0,Senior Quality Control Analyst
"San Diego, CA",32.7174202,-117.162772,235.0,Lifeguard
"Louisville, KY",38.2542376,-85.759407,87.0,Operations Supervisor
"Notre Dame, IN",41.704567749999995,-86.23822026017265,7.0,Software Engineer
"Fort Lauderdale, FL",26.1223084,-80.1433786,65.0,Executive Chef
"Atlanta, GA",33.7489924,-84.3902644,382.0,Payroll Coordinator
"Gilbert, AZ",33.3527632,-111.789037,11.0,Store Manager
"Denver, CO",39.7392364,-104.984862,247.0,Office Services Clerk
"Denver, CO",39.7392364,-104.984862,247.0,Level 2 Support Consultant
"Peoria, AZ",33.5806115,-112.237294,11.0,Operating Room Manager
"Detroit, MI",42.3315509,-83.0466403,69.0,Manager Patient Services Labor and Delivery Days FT
"Latham, NY",42.7444055,-73.761563,7.0,Finance Accounting Associate
"Topeka, KS",39.049011,-95.677556,6.0,PHARMACY/PHARMCST-INTERN
"Greenwood Village, CO",39.6172101,-104.950814,19.0,Data Engineer
"Hartford, CT",41.764582,-72.6908547,47.0,Fee for Service Mental Health Counselor
"San Diego County, CA",32.9637838,-116.7706277,8.0,Office Technician (Typing) (JC-401589)
"Rochester, NY",43.157285,-77.615214,64.0,Project Water Engineer
"Melville, NY",40.7934322,-73.4151214,16.0,Commercial Director (Middle Market)
"Houston, TX",29.7589382,-95.3676974,444.0,Kitchen Equipment Installation Technician
"San Francisco, CA",37.7792588,-122.4193286,289.0,"Engineering Manager, Corporate Engineering (Salesforce)"
"San Jose, CA",37.3361663,-121.890591,158.0,Hardware Test Engineer
"Paramus, NJ",40.9452911,-74.0735899,17.0,HRIS Business / Systems Analyst
Charlotte Metro,35.22329095,-80.84744438723916,20.0,Cash Management Operations Specialist
"Los Alamos, NM",35.88137,-106.298959,10.0,"Director, Protective Force Operations and Training"
San Diego Metropolitan Area,-12.1106354,-77.0471789,32.0,Global Account Manager
"Washington, DC",38.8950368,-77.0365427,262.0,Global Account Manager
"Overland Park, KS",38.9742502,-94.6851702,45.0,Help Desk Technician-Overland Park KS
"Cupertino, CA",37.3228934,-122.0322895,28.0,Math Teacher
"Herndon, VA",38.9695316,-77.3859479,36.0,Global Account Manager
"Herndon, VA",38.9695316,-77.3859479,36.0,Global Account Manager
"Mechanicsburg, PA",40.2101972,-77.0047276,17.0,General Manager II - Distribution
"El Segundo, CA",33.917028,-118.4156337,31.0,Electrical Design And Analysis Engineer 3  -  61152
"Washington, DC",38.8950368,-77.0365427,262.0,"Customer Support Manager, Washington, DC"
"Charleston, SC",32.7884363,-79.9399309,44.0,"Fiber Technician, Charleston, SC"
"San Francisco, CA",37.7792588,-122.4193286,289.0,"Logistics Operations Analyst (ERP Integration) - Must be local to San Francisco, CA or Chicago, IL ONLY"
"Chicago, IL",41.8755616,-87.6244212,534.0,Structural Engineering Intern - Summer 2024
"Irving, TX",32.8295183,-96.9442177,97.0,Workday Certified Prism Financials Reporting Consultant
"New York, NY",40.7127281,-74.0060152,818.0,Change Management Strategist
San Francisco Bay Area,37.7884969,-122.3558473,162.0,Data Engineer
"San Francisco, CA",37.7792588,-122.4193286,289.0,2024 Software Engineer Intern
"Fort Lauderdale, FL",26.1223084,-80.1433786,65.0,Process Improvement Lead
"New York, United States",40.7127281,-74.0060152,167.0,Receptionist
"Richmond, VA",37.5385087,-77.43428,116.0,Care Promoter
"Mountain View, CA",37.3893889,-122.0832101,55.0,Senior DevOps Engineer
"Richmond, VA",37.5385087,-77.43428,116.0,Nurse Practitioner - NP - Clinical Research
"Sacramento, CA",38.5810606,-121.493895,109.0,Administrative Assistant
"New York, NY",40.7127281,-74.0060152,818.0,AI Engineer (Proof Of Concept Developer)
"Newark, NJ",40.735657,-74.1723667,43.0,Registered Nurse (RN) B4 Surgical/GYN Unit (Days)
"Detroit, MI",42.3315509,-83.0466403,69.0,Clinical Coordinator ED Days FT
"Gardena, CA",33.8815702,-118.2918113,7.0,Material Estimator
"Houston, TX",29.7589382,-95.3676974,444.0,**Hybrid** Immigration Attorney
"Overland Park, KS",38.9742502,-94.6851702,45.0,Hiring Servers!
"Overland Park, KS",38.9742502,-94.6851702,45.0,Hiring Event Servers!
"Salt Lake City, UT",40.7596198,-111.886797,117.0,Manager Security & Environmental Programs
"Santa Monica, CA",34.0194704,-118.491227,31.0,Buying & Product Development Intern
"California, United States",36.7014631,-118.755997,162.0,"Business Analyst, Senior (Short Term Employment)"
"Maywood, IL",41.8789942,-87.8436412,6.0,Dynamic Scheduler - Neuro and Sleep Depts - Burr Ridge
"Pasadena, CA",34.1476507,-118.144155,44.0,Vice President of Call Centers
"Pasadena, CA",34.1476507,-118.144155,44.0,"Manager, Vascular Access"
"Chicago, IL",41.8755616,-87.6244212,534.0,"Manager of People, Culture and Equity"
"Los Angeles, CA",34.0536909,-118.242766,366.0,EMS (ENTERTAINMENT MEDIA & SPORTS) PROJECT COORDINATOR (Los Angeles)
"Charlotte, NC",35.2272086,-80.8430827,247.0,Sr. Supply Chain Manager
San Francisco Bay Area,37.7884969,-122.3558473,162.0,Construction Superintendent
"Morrisville, NC",35.824341,-78.8300321,13.0,Night Audit
"San Diego, CA",32.7174202,-117.162772,235.0,Mobile Engineer
"Washington, DC",38.8950368,-77.0365427,262.0,"Manager, Database Administration- Washington DC"
"Overland Park, KS",38.9742502,-94.6851702,45.0,"Manager, EH&S and Compliance- Overland Park KS"
"Walnut Creek, CA",37.9020731,-122.0618702,16.0,Global Account Manager
"Torrance, CA",33.8371392,-118.3413606,45.0,Youth Counselor
"Pasadena, CA",34.1476507,-118.144155,44.0,Global Account Manager
"Caldwell, ID",43.6678736,-116.689415,6.0,"Maintenance Support Technician 1 (Crew B) Caldwell, ID"
"Orlando, FL",28.5421109,-81.3790304,171.0,Global Account Manager
"New York, NY",40.7127281,-74.0060152,818.0,Success Programs Manager *GES Premier* 1413772
"Walnut Creek, CA",37.9020731,-122.0618702,16.0,Global Account Manager
"Washington, DC",38.8950368,-77.0365427,262.0,"Counsel, Washington, DC"
"Orlando, FL",28.5421109,-81.3790304,171.0,"Field Technician, Orlando, FL"
"Fresno, CA",36.7394421,-119.78483,37.0,STAFF SERVICES ANALYST
"Washington, DC",38.8950368,-77.0365427,262.0,"Clinical Specialist III, DBS - Mid Atlantic"
"Chicago, IL",41.8755616,-87.6244212,534.0,Retail Project Manager
"Sacramento, CA",38.5810606,-121.493895,109.0,Health Program Audit Manager III - Outpatient Financial Review Branch Chief
"Oregon, United States",43.9792797,-120.737257,17.0,Product Manager - Page Shield
"Atlanta, GA",33.7489924,-84.3902644,382.0,Head of Strategic Finance
San Francisco Bay Area,37.7884969,-122.3558473,162.0,Senior Estimator - Drywall
"Ohio, United States",40.2253569,-82.6881395,26.0,Konami Slot Technician Ohio
"New Jersey, United States",40.0757384,-74.4041622,54.0,Konami Slot Technician New Jersey
"Las Vegas, NV",36.1672559,-115.148516,168.0,Lead Systems Support Specialist
"Knoxville, TN",35.9603948,-83.9210261,30.0,Provider Comp & Payroll Administration Specialist - Remote
"New York, United States",40.7127281,-74.0060152,167.0,CRM Sales Manager
"Northbrook, IL",42.128704,-87.8265089,12.0,Hiring Hosts!
"Concord, CA",37.9768525,-122.0335624,18.0,Construction Project Manager
"Deerfield, IL",42.1711365,-87.8445119,8.0,Clinical Research Associate
"California, United States",36.7014631,-118.755997,162.0,Artificial Intelligence Intern
"Miami, FL",25.7741728,-80.19362,231.0,Search Engine Optimization Manager
"Los Angeles, CA",34.0536909,-118.242766,366.0,Recruiter
"Wayne, NJ",40.9491723,-74.2376802,7.0,"Sr. Engineer, Quality"
"Sacramento, CA",38.5810606,-121.493895,109.0,Construction Project Manager
"Los Angeles, California, United States",34.0536909,-118.242766,20.0,Propulsion Products Specialist (2nd Shift)
"Omaha, NE",41.2587459,-95.9383758,73.0,Journeyman Computer User Support Specialist
"Redmond, WA",47.6694141,-122.1238767,70.0,"Case Manager, Housing - HYS-HES"
"Dallas, TX",32.7762719,-96.7968559,383.0,Controller
"Lake Forest, CA",33.6469261,-117.6859213,12.0,Materials Planning Analyst II
"Washington, DC",38.8950368,-77.0365427,262.0,Electrical Testing Field Engineer 3 - Washington Metro Area
"Chicago, IL",41.8755616,-87.6244212,534.0,Programming Analyst
"Los Angeles, CA",34.0536909,-118.242766,366.0,EHS Supervisor
"Herndon, VA",38.9695316,-77.3859479,36.0,Global Account Manager
"Washington, DC",38.8950368,-77.0365427,262.0,"Manager, EH&S and Compliance- Washington DC"
"Pensacola, FL",30.421309,-87.2169149,18.0,Scrum Master IV
Greater Indianapolis,39.8017245,-86.18798358435414,15.0,Sr Student (Records/ Admissions) Consultant - Higher Education
"New Orleans, LA",29.9759983,-90.0782127,38.0,Global Account Manager
"Colorado, United States",38.7251776,-105.607716,33.0,Senior Enterprise Architect - Financial Services and Professional Services
San Francisco Bay Area,37.7884969,-122.3558473,162.0,Global Account Manager
"North Carolina, United States",35.6729639,-79.0392919,39.0,Success Programs Manager *GES Premier* 1413771
"Boston, MA",42.3554334,-71.060511,324.0,Senior IT Scrum Leader/Project Manager
"Oakland, CA",37.8044557,-122.271356,55.0,Scheduler/Claims Analyst  
"Washington, DC",38.8950368,-77.0365427,262.0,Carrier Access Project Manager – Cogent Communicat
"Santa Clara, CA",37.2333253,-121.6846349,77.0,Global Account Manager
"Redwood City, CA",37.4863239,-122.232523,18.0,Senior Technical Writer
"Overland Park, KS",38.9742502,-94.6851702,45.0,Global Account Manager
"Washington, DC",38.8950368,-77.0365427,262.0,"Customer Support Engineer –Washington, DC"
"Austin, TX",30.2711286,-97.7436995,347.0,Territory Sales Manager
"Plano, TX",33.0136764,-96.6925096,104.0,"Associate I, Warehouse"
"Folsom, CA",38.6779591,-121.176058,7.0,Senior UX Designer
"Fort Worth, TX",32.753177,-97.3327459,112.0,Senior Data Analyst
"Notre Dame, IN",41.704567749999995,-86.23822026017265,7.0,Systems Technical Advisor
"Notre Dame, IN",41.704567749999995,-86.23822026017265,7.0,Justice Education Program Director
"Wilmington, DE",39.7459468,-75.546589,54.0,TECHNICAL SUPPORT SPECIALIST (Wilmington)
"Macon, GA",32.8406946,-83.6324022,10.0,Service Technician
"Sacramento, CA",38.5810606,-121.493895,109.0,BHIP Section Manager
"Tacoma, WA",47.2455013,-122.438329,29.0,Community Manager
"Auburn Hills, MI",42.6875323,-83.2341028,36.0,Test Engineer [47571]
"New York, NY",40.7127281,-74.0060152,818.0,Engagement Manager
